stop_id,stop_code,stop_name,stop_desc,stop_lat,stop_lon,zone_id,stop_url,location_type,parent_station,wheelchair_boarding,stop_timezone,platform_code,vehicle_type
NSR:StopPlace:41025,,Nytun,,62.460846,6.154053,,,1,,2,,,700
NSR:StopPlace:41022,,Nystøyl Trevare,,62.18731,5.45952,,,1,,2,,,700
NSR:StopPlace:41020,,Brekke,,62.18332,6.166108,,,1,,2,,,700
NSR:StopPlace:41021,,Skjong nordre,,62.50393,6.107596,,,1,,2,,,700
NSR:StopPlace:34737,,Langeset,,61.906216,6.601527,,,1,,2,,,700
NSR:StopPlace:41028,,Nyveien Tomrefjord,,62.611145,6.946717,,,1,,2,,,700
NSR:StopPlace:41027,,Skjongholmen,,62.50729,6.087252,,,1,,2,,,700
NSR:StopPlace:41035,,Skjærahøgda,,63.08664,7.800204,,,1,,2,,,700
NSR:StopPlace:41036,,Brekken,,62.573143,7.824059,,,1,,2,,,700
NSR:StopPlace:41033,,Brekke nedre,,62.186462,6.154136,,,1,,2,,,700
NSR:StopPlace:41034,,Nørvasund,,62.471024,6.238663,,,1,,2,,,700
NSR:StopPlace:42360,,Hallguttu,,63.243702,9.77093,,,1,,2,,,700
NSR:StopPlace:34745,,Langesethøgda,,61.899536,6.612494,,,1,,2,,,700
NSR:StopPlace:41039,,Nørvegata vest,,62.471127,6.206349,,,1,,2,,,700
NSR:StopPlace:41046,,Skjærnæset,,63.080482,7.595429,,,1,,2,,,700
NSR:StopPlace:41044,,Bremsnes rundkjøring,,63.084385,7.661957,,,1,,2,,,700
NSR:StopPlace:42375,,Lønset,,62.582706,9.337155,,,1,,2,,,700
NSR:StopPlace:41040,,Brekkskiftet,,62.871983,7.892473,,,1,,2,,,700
NSR:StopPlace:41041,,Skjæret,,62.88335,6.971341,,,1,,2,,,700
NSR:StopPlace:34754,,Vegtun,,61.89341,6.611522,,,1,,2,,,700
NSR:StopPlace:41057,,Or,,63.03731,7.826875,,,1,,2,,,700
NSR:StopPlace:41058,,Brenskag,,63.439785,7.964469,,,1,,2,,,700
NSR:StopPlace:41056,,Brendehaug,,62.509148,6.426677,,,1,,2,,,700
NSR:StopPlace:41053,,Skjærså,,62.76844,7.428784,,,1,,2,,,700
NSR:StopPlace:41054,,Nåsbru,,62.894608,7.397235,,,1,,2,,,700
NSR:StopPlace:41051,,Brandsæter nord,,62.892105,7.372675,,,1,,2,,,700
NSR:StopPlace:41052,,Bremsnes,,63.082108,7.660754,,,1,,2,,,700
NSR:StopPlace:41050,,Bremsnes kirke,,63.08659,7.653576,,,1,,2,,,700
NSR:StopPlace:34763,,Svarstad kryss,,61.89172,6.638132,,,1,,2,,,700
NSR:StopPlace:34769,,Grønevik,,61.89929,6.698499,,,1,,2,,,700
NSR:StopPlace:41067,,Skjørsætra,,62.79009,7.863841,,,1,,2,,,700
NSR:StopPlace:41064,,Olav Oksviks veg,,62.754124,7.218922,,,1,,2,,,700
NSR:StopPlace:41062,,Olastua,,62.99675,7.475067,,,1,,2,,,700
NSR:StopPlace:41063,,Brevik,,62.58467,7.730844,,,1,,2,,,700
NSR:StopPlace:41060,,Skjølberg,,63.347343,7.99575,,,1,,2,,,700
NSR:StopPlace:58740,,Aukra ferjekai,,62.78057,6.91736,,,1,,2,,,1000
NSR:StopPlace:41061,,Brenslene,,62.15189,6.09328,,,1,,2,,,700
NSR:StopPlace:58742,,Småge ferjekai,,62.80656,6.76741,,,1,,2,,,1000
NSR:StopPlace:34771,,Vinsrygg kryss,,61.887997,6.658641,,,1,,2,,,700
NSR:StopPlace:58744,,Finnøya ferjekai,,62.804176,6.509003,,,1,,2,,,1000
NSR:StopPlace:37800,,Røyset,,62.34871,7.092037,,,1,,2,,,700
NSR:StopPlace:58746,,Valderøya hurtigbåtkai,,62.49582,6.129025,,,1,,2,,,1000
NSR:StopPlace:37805,,Holen,,62.823055,7.237565,,,1,,2,,,700
NSR:StopPlace:58749,,Sølsnes ferjekai,,62.684788,7.464652,,,1,,2,,,1000
NSR:StopPlace:37803,,Ålesund rådhus,,62.470783,6.154583,,,1,,2,,,700
NSR:StopPlace:34779,,Heststoda,,61.89028,6.687919,,,1,,2,,,700
NSR:StopPlace:37809,,Råket,,63.420822,7.827343,,,1,,2,,,700
NSR:StopPlace:37808,,Hollingen,,62.776127,6.991927,,,1,,2,,,700
NSR:StopPlace:37807,,Vatne rv. 655,,62.14575,6.25359,,,1,,2,,,700
NSR:StopPlace:41077,,Bruaset,,62.52005,7.394717,,,1,,2,,,700
NSR:StopPlace:41078,,Olsviktoppen,,62.46073,6.14516,,,1,,2,,,700
NSR:StopPlace:41075,,Olsvikskaret,,62.460094,6.1491,,,1,,2,,,700
NSR:StopPlace:41073,,Brokstad,,62.750114,7.433915,,,1,,2,,,700
NSR:StopPlace:41074,,Skodje gamle skule,,62.502502,6.701218,,,1,,2,,,700
NSR:StopPlace:41071,,Broa i Breivika,,62.470592,6.324718,,,1,,2,,,700
NSR:StopPlace:41072,,Olsvika,,62.476532,6.374108,,,1,,2,,,700
NSR:StopPlace:58731,,Glamox sør,,62.73802,7.18996,,,1,,2,,,700
NSR:StopPlace:41070,,Olderbakken,,63.313847,8.625218,,,1,,2,,,700
NSR:StopPlace:58734,,Voldnes snuplass,,62.213917,5.788858,,,1,,2,,,700
NSR:StopPlace:37811,,Råkhaugvegen,,62.752354,7.239626,,,1,,2,,,700
NSR:StopPlace:34785,,Lunde,,61.88757,6.676333,,,1,,2,,,700
NSR:StopPlace:58736,,Mordalsvågen ferjekai,,62.728825,6.985988,,,1,,2,,,1000
NSR:StopPlace:37816,,Vatne barneskule,,62.55758,6.626758,,,1,,2,,,700
NSR:StopPlace:58738,,Solholmen ferjekai,,62.71937,6.93761,,,1,,2,,,1000
NSR:StopPlace:37815,,Hollingsholm,,62.779545,6.986901,,,1,,2,,,700
NSR:StopPlace:34789,,Stryn rutebilstasjon,,61.902706,6.7136,,,1,,2,,,700
NSR:StopPlace:37814,,Rånes,,62.94214,7.518122,,,1,,2,,,700
NSR:StopPlace:37818,,Vatne sjukeheim,,62.55602,6.609172,,,1,,2,,,700
NSR:StopPlace:41088,,Skodje rådhus,,62.50508,6.686685,,,1,,2,,,700
NSR:StopPlace:41089,,Juulenga,,63.10729,7.760777,,,1,,2,,,700
NSR:StopPlace:41086,,Dalvikveien,,63.107807,7.767057,,,1,,2,,,700
NSR:StopPlace:41087,,Bruhagen,,63.053223,7.633576,,,1,,2,,,700
NSR:StopPlace:41084,,Omagata,,63.106667,7.756552,,,1,,2,,,700
NSR:StopPlace:41085,,Brudevoll,,62.089695,5.783471,,,1,,2,,,700
NSR:StopPlace:58760,,Åram ferjekai,,62.19834,5.49581,,,1,,2,,,1000
NSR:StopPlace:37820,,Hollingsholmen ferjekai,,62.777084,6.974314,,,1,,2,,,700
NSR:StopPlace:41082,,Brudevik,,62.110455,5.436011,,,1,,2,,,700
NSR:StopPlace:58762,,Voksa ferjekai,,62.215218,5.474881,,,1,,2,,,1000
NSR:StopPlace:41080,,Olsvollen,,62.476532,6.37762,,,1,,2,,,700
NSR:StopPlace:58764,,Sæbø ferjekai,,62.21102,6.47599,,,1,,2,,,1000
NSR:StopPlace:41081,,Skodje kyrkje,,62.505962,6.698174,,,1,,2,,,700
NSR:StopPlace:37824,,Saghøgda,,62.895405,8.200194,,,1,,2,,,700
NSR:StopPlace:70400,,Edøy ferjekai,,63.286438,8.136388,,,1,,2,,,700
NSR:StopPlace:37823,,Holm,,62.67745,7.560319,,,1,,2,,,700
NSR:StopPlace:37822,,Vatne ungdomsskule,,62.547714,6.597827,,,1,,2,,,700
NSR:StopPlace:58768,,Dryna ferjekai,,62.639725,6.52317,,,1,,2,,,1000
NSR:StopPlace:37828,,Vatsellenskiftet,,63.05698,8.014784,,,1,,2,,,700
NSR:StopPlace:37827,,Sagvegen,,62.73698,7.129151,,,1,,2,,,700
NSR:StopPlace:37825,,Vatneeidet,,62.545376,6.586764,,,1,,2,,,700
NSR:StopPlace:37829,,Holmeset,,62.535267,6.375993,,,1,,2,,,700
NSR:StopPlace:41099,,Omsund bru,,63.107048,7.81909,,,1,,2,,,700
NSR:StopPlace:41097,,Omsa,,63.109306,7.85272,,,1,,2,,,700
NSR:StopPlace:41098,,Brungot,,62.183613,6.183591,,,1,,2,,,700
NSR:StopPlace:41095,,Skodje sentrum,,62.504032,6.695555,,,1,,2,,,700
NSR:StopPlace:41093,,Brulia,,62.311314,8.101481,,,1,,2,,,700
NSR:StopPlace:37831,,Vean,,63.31108,8.602226,,,1,,2,,,700
NSR:StopPlace:58751,,Hennset ferjekai,,63.13655,8.43618,,,1,,2,,,1000
NSR:StopPlace:37830,,Sagvågen,,63.253323,8.327567,,,1,,2,,,700
NSR:StopPlace:41094,,Omenås Gjerde,,62.333557,7.379204,,,1,,2,,,700
NSR:StopPlace:58752,,Seivika ferjekai,,63.111805,7.870162,,,1,,2,,,1000
NSR:StopPlace:41091,,Omenås,,62.33253,7.346291,,,1,,2,,,700
NSR:StopPlace:41092,,Brukrysset,,62.670277,6.652628,,,1,,2,,,700
NSR:StopPlace:37835,,Vebenstad,,63.010933,7.584254,,,1,,2,,,700
NSR:StopPlace:58754,,Sulesund ferjekai,,62.395042,6.164457,,,1,,2,,,1000
NSR:StopPlace:41090,,Bruhagen sentrum,,63.052197,7.629845,,,1,,2,,,700
NSR:StopPlace:37834,,Salthammer,,62.601254,7.099735,,,1,,2,,,700
NSR:StopPlace:58756,,Hundeidvik ferjekai,,62.371677,6.424135,,,1,,2,,,1000
NSR:StopPlace:37832,,Holsekerdalen,,62.3407,5.858847,,,1,,2,,,700
NSR:StopPlace:37839,,Saltkjelsvik,,62.496452,6.5967,,,1,,2,,,700
NSR:StopPlace:58758,,Larsnes ferjekai,,62.20691,5.56888,,,1,,2,,,1000
NSR:StopPlace:37838,,Veblungsnes,,62.553417,7.667285,,,1,,2,,,700
NSR:StopPlace:37837,,Saltkjelen,,63.078045,7.881698,,,1,,2,,,700
NSR:StopPlace:37836,,Støylesvingen,,62.33855,5.870405,,,1,,2,,,700
NSR:StopPlace:40573,,Myklebust,,62.102806,5.493338,,,1,,2,,,700
NSR:StopPlace:38252,,Indresæter,,63.15856,8.167391,,,1,,2,,,700
NSR:StopPlace:39585,,Ullavik,,62.400955,6.5819,,,1,,2,,,700
NSR:StopPlace:40574,,Bekkevoll ungdomsskole,,62.739964,7.140904,,,1,,2,,,700
NSR:StopPlace:38251,,Eik,,62.627567,6.667707,,,1,,2,,,700
NSR:StopPlace:38250,,Volda rutebilstasjon,,62.14511,6.071533,,,1,,2,,,700
NSR:StopPlace:40572,,Bekken,,63.337524,8.097425,,,1,,2,,,700
NSR:StopPlace:39580,,Futura rv. 70,,63.11011,7.780779,,,1,,2,,,700
NSR:StopPlace:38255,,Eikrem,,62.099476,5.743841,,,1,,2,,,700
NSR:StopPlace:39581,,Ullaland,,62.777683,7.643802,,,1,,2,,,700
NSR:StopPlace:38253,,Volda sjukehus,,62.149487,6.092734,,,1,,2,,,700
NSR:StopPlace:39583,,Ullaland snuplass,,62.778107,7.669307,,,1,,2,,,700
NSR:StopPlace:38259,,Indrevik,,62.466152,6.648224,,,1,,2,,,700
NSR:StopPlace:38263,,Eikrem,,62.408478,6.251473,,,1,,2,,,700
NSR:StopPlace:40584,,Bendixens gate,,63.113583,7.725888,,,1,,2,,,700
NSR:StopPlace:40585,,Myklebust,,62.3283,5.635171,,,1,,2,,,700
NSR:StopPlace:39597,,Fylkeshusa,,62.734505,7.153575,,,1,,2,,,700
NSR:StopPlace:38260,,Volda ungdomsskule,på E39,62.145874,6.081938,,,1,,2,,,700
NSR:StopPlace:39598,,Malmefjorden Vonheim,,62.816673,7.239281,,,1,,2,,,700
NSR:StopPlace:40583,,Myklebust,,62.33139,7.340924,,,1,,2,,,700
NSR:StopPlace:38267,,Volda vgs.,,62.150383,6.072605,,,1,,2,,,700
NSR:StopPlace:38266,,Innfjorden,,62.497684,7.565176,,,1,,2,,,700
NSR:StopPlace:40581,,Bele kryss,,63.013374,8.519803,,,1,,2,,,700
NSR:StopPlace:39594,,Ulset,,63.032272,8.030717,,,1,,2,,,700
NSR:StopPlace:38268,,Eikrem,,62.83121,6.93916,,,1,,2,,,700
NSR:StopPlace:39599,,Ulset,,62.323215,6.003695,,,1,,2,,,700
NSR:StopPlace:38270,,Voldnes,,62.216072,5.790901,,,1,,2,,,700
NSR:StopPlace:43614,,Osbrua,,63.287018,9.695879,,,1,,2,,,700
NSR:StopPlace:40588,,Myklebust skule,,62.731907,6.448721,,,1,,2,,,700
NSR:StopPlace:40595,,Myklebust øst gamlevegen,,62.492737,6.294542,,,1,,2,,,700
NSR:StopPlace:38273,,Ålesund vgs.,,62.46911,6.188539,,,1,,2,,,700
NSR:StopPlace:40596,,Berg vest,,62.504898,6.667632,,,1,,2,,,700
NSR:StopPlace:43620,,Ellingsgården,,63.228767,9.387789,,,1,,2,,,700
NSR:StopPlace:40593,,Myklebust vest,,62.49136,6.289619,,,1,,2,,,700
NSR:StopPlace:38271,,Eikremsbukta,,62.83589,6.947097,,,1,,2,,,700
NSR:StopPlace:40592,,Berg,,62.28937,6.050804,,,1,,2,,,700
NSR:StopPlace:38276,,Voldstad,,62.57703,7.774876,,,1,,2,,,700
NSR:StopPlace:40590,,Myklebust Verft,,62.221348,5.64971,,,1,,2,,,700
NSR:StopPlace:38275,,Innlandet Sundbåtkai,,63.107864,7.737733,,,1,,2,,,1000
NSR:StopPlace:38279,,Voldsund indre,,62.35748,5.673975,,,1,,2,,,700
NSR:StopPlace:38281,,Eikrem sør,,62.049454,5.609132,,,1,,2,,,700
NSR:StopPlace:38284,,Innselset,,62.06971,5.898901,,,1,,2,,,700
NSR:StopPlace:38283,,Voldsund midtre,,62.36048,5.679792,,,1,,2,,,700
NSR:StopPlace:38289,,Vollan,,62.568657,7.155024,,,1,,2,,,700
NSR:StopPlace:38287,,Innselset sør,,62.062107,5.894383,,,1,,2,,,700
NSR:StopPlace:38286,,Voldsund ytre,,62.36352,5.676245,,,1,,2,,,700
NSR:StopPlace:38292,,Vollan,,63.412025,7.830806,,,1,,2,,,700
NSR:StopPlace:38290,,Trettnes,,63.32817,8.051851,,,1,,2,,,700
NSR:StopPlace:38296,,Inseth bru,,62.241367,7.263433,,,1,,2,,,700
NSR:StopPlace:38295,,Vollan,,62.626434,7.4868,,,1,,2,,,700
NSR:StopPlace:38293,,Innvik,,62.49669,6.566688,,,1,,2,,,700
NSR:StopPlace:38298,,Instevågen,,62.588345,6.445598,,,1,,2,,,700
NSR:StopPlace:42323,,Skulvegen,,62.597664,9.681715,,,1,,2,,,700
NSR:StopPlace:34703,,Hatledal kryss,,61.922977,6.54995,,,1,,2,,,700
NSR:StopPlace:42334,,Vormstad,,63.199947,9.767967,,,1,,2,,,700
NSR:StopPlace:41002,,Nyjordkrysset,,62.62055,6.981395,,,1,,2,,,700
NSR:StopPlace:41003,,Breivik,,62.75703,6.453181,,,1,,2,,,700
NSR:StopPlace:41000,,Skjevikåsen butikken,,62.785686,7.536739,,,1,,2,,,700
NSR:StopPlace:41001,,Breiteig,,62.14263,5.69269,,,1,,2,,,700
NSR:StopPlace:42331,,Vorhaug,,62.612446,9.594684,,,1,,2,,,700
NSR:StopPlace:34712,,Sindre kryss,,61.926945,6.542762,,,1,,2,,,700
NSR:StopPlace:34719,,Haugen,,61.919025,6.555248,,,1,,2,,,700
NSR:StopPlace:41008,,Breivik,,62.194263,5.583982,,,1,,2,,,700
NSR:StopPlace:41009,,Nylenda,,62.149803,6.123164,,,1,,2,,,700
NSR:StopPlace:41006,,Nyland,,62.833824,6.915389,,,1,,2,,,700
NSR:StopPlace:41007,,Skjevlingen,,62.995255,7.922562,,,1,,2,,,700
NSR:StopPlace:41004,,Nykrem,,62.2562,5.794204,,,1,,2,,,700
NSR:StopPlace:41013,,Skjevlingsneset,,62.9901,7.882624,,,1,,2,,,700
NSR:StopPlace:41014,,Brekkan,,62.828377,8.527622,,,1,,2,,,700
NSR:StopPlace:41011,,Brekka,,62.78558,8.101152,,,1,,2,,,700
NSR:StopPlace:41012,,Nylykkja,,62.74888,8.534204,,,1,,2,,,700
NSR:StopPlace:41010,,Breivik,,62.780346,6.890372,,,1,,2,,,700
NSR:StopPlace:34729,,Isbakken,,61.911163,6.585846,,,1,,2,,,700
NSR:StopPlace:41019,,Nystøyl byggefeltet,,62.18281,5.45128,,,1,,2,,,700
NSR:StopPlace:41017,,Geitvik,,62.071903,6.320424,,,1,,2,,,700
NSR:StopPlace:39504,,Tusvika Tugarden,,62.394066,6.466673,,,1,,2,,,700
NSR:StopPlace:39505,,Løset,,62.294758,5.581979,,,1,,2,,,700
NSR:StopPlace:39507,,Løset,,62.845005,7.07892,,,1,,2,,,700
NSR:StopPlace:39500,,Løset,,62.407917,6.782296,,,1,,2,,,700
NSR:StopPlace:39503,,Furneset,,62.422432,6.278763,,,1,,2,,,700
NSR:StopPlace:39508,,Furneset ferjekai,,62.651627,7.085018,,,1,,2,,,1000
NSR:StopPlace:44098,,Gravaune,,62.57928,9.35621,,,1,,2,,,700
NSR:StopPlace:39510,,Løset,,62.359158,7.086976,,,1,,2,,,700
NSR:StopPlace:39515,,Løset Hauen,,61.990883,6.087915,,,1,,2,,,700
NSR:StopPlace:39516,,Tvergrov,,62.15806,6.326543,,,1,,2,,,700
NSR:StopPlace:39518,,Furneskrysset,,62.63156,7.073719,,,1,,2,,,700
NSR:StopPlace:39511,,Tverrfjell Ny Jord,,62.925472,7.192203,,,1,,2,,,700
NSR:StopPlace:59108,,Kvennbøkrysset,,62.929558,8.685132,,,1,,2,,,700
NSR:StopPlace:39514,,Tverrfjellskiftet,,62.90941,7.225037,,,1,,2,,,700
NSR:StopPlace:39519,,Tvergrov Valset,,62.160915,6.333416,,,1,,2,,,700
NSR:StopPlace:40508,,Baggan,,63.193577,8.16412,,,1,,2,,,700
NSR:StopPlace:40509,,Bakarkrysset,,62.3068,6.910713,,,1,,2,,,700
NSR:StopPlace:40507,,Mork,,62.95619,7.565853,,,1,,2,,,700
NSR:StopPlace:40504,,Mork,,62.339146,5.967906,,,1,,2,,,700
NSR:StopPlace:40505,,Bahaugen,,63.00889,7.572407,,,1,,2,,,700
NSR:StopPlace:40502,,Babrekka,,63.01166,7.551448,,,1,,2,,,700
NSR:StopPlace:40500,,Ba,,63.00917,7.566643,,,1,,2,,,700
NSR:StopPlace:40501,,Mordalsvågen ferjekai,,62.728825,6.986653,,,1,,2,,,700
NSR:StopPlace:39527,,Løvik indre,,62.10422,5.933971,,,1,,2,,,700
NSR:StopPlace:39529,,Tynesstranda,,62.363266,6.579296,,,1,,2,,,700
NSR:StopPlace:39522,,Løvikbukta,,62.541607,7.123342,,,1,,2,,,700
NSR:StopPlace:39524,,Tynes,,62.369705,6.570769,,,1,,2,,,700
NSR:StopPlace:39525,,Løvik,,62.837673,6.849603,,,1,,2,,,700
NSR:StopPlace:40519,,Morkahamna,,62.775887,7.475321,,,1,,2,,,700
NSR:StopPlace:40515,,Bakk,,63.344322,8.814164,,,1,,2,,,700
NSR:StopPlace:40511,,Sjøheim,,63.01171,8.527255,,,1,,2,,,700
NSR:StopPlace:41842,,Tussan,,63.10393,9.600295,,,1,,2,,,700
NSR:StopPlace:39530,,Løvik Dalsfjord skule,,62.112778,5.936347,,,1,,2,,,700
NSR:StopPlace:39531,,Tynesstranda sør,,62.358627,6.584733,,,1,,2,,,700
NSR:StopPlace:38201,,Håvoll,,62.239655,6.001365,,,1,,2,,,700
NSR:StopPlace:39537,,Løvikvegen,,62.82678,6.882795,,,1,,2,,,700
NSR:StopPlace:38205,,Vaksvik Viset,,62.447052,6.902372,,,1,,2,,,700
NSR:StopPlace:39538,,Tøndergården,,62.740253,7.207105,,,1,,2,,,700
NSR:StopPlace:70397,,Kjelstadli,,62.028183,6.731763,,,1,,2,,,700
NSR:StopPlace:70398,,Sykkylven ferjekai,,62.41003,6.548274,,,1,,2,,,700
NSR:StopPlace:39539,,Løvold,,63.06617,7.496907,,,1,,2,,,700
NSR:StopPlace:38202,,Eidsvatnet,,62.054302,6.402801,,,1,,2,,,700
NSR:StopPlace:70399,,Magerholm ferjekai,,62.432278,6.497206,,,1,,2,,,1000
NSR:StopPlace:39533,,Løvikneset,,62.105183,6.139909,,,1,,2,,,700
NSR:StopPlace:38209,,Eidsvik aust,,62.545277,6.576122,,,1,,2,,,700
NSR:StopPlace:39534,,Tømmervåg ferjekai,,63.153103,7.954887,,,1,,2,,,1000
NSR:StopPlace:38208,,Viset,,62.77883,8.522502,,,1,,2,,,700
NSR:StopPlace:38207,,Igesund,,62.337864,5.612384,,,1,,2,,,700
NSR:StopPlace:39536,,Tømmervåg,,63.15702,7.955096,,,1,,2,,,700
NSR:StopPlace:38206,,Eidsvik,,62.54328,6.578191,,,1,,2,,,700
NSR:StopPlace:40528,,Bakneset,,62.62233,7.154508,,,1,,2,,,700
NSR:StopPlace:40529,,Mosmarka Einehøgda,,62.199566,6.158963,,,1,,2,,,700
NSR:StopPlace:40526,,Bakkmyr,,63.344154,8.804176,,,1,,2,,,700
NSR:StopPlace:40527,,Morsund,,62.76435,6.423743,,,1,,2,,,700
NSR:StopPlace:40525,,Morkestranda,,62.696033,7.649204,,,1,,2,,,700
NSR:StopPlace:40522,,Morkaura,,62.774544,7.469893,,,1,,2,,,700
NSR:StopPlace:40523,,Bakkemyr,,62.813538,6.88407,,,1,,2,,,700
NSR:StopPlace:40520,,Bakkamyra,,63.422695,7.848679,,,1,,2,,,700
NSR:StopPlace:40521,,Bakkelidvegen,,62.149128,6.117929,,,1,,2,,,700
NSR:StopPlace:39541,,Løvoll,,62.424133,6.710935,,,1,,2,,,700
NSR:StopPlace:39542,,Tøndergård skole,,62.744045,7.208552,,,1,,2,,,700
NSR:StopPlace:39543,,Fursetfjellet,,62.83236,7.602214,,,1,,2,,,700
NSR:StopPlace:38212,,Eidsvik vest,,62.544243,6.554958,,,1,,2,,,700
NSR:StopPlace:38211,,Visnes sør,,62.95403,7.401879,,,1,,2,,,700
NSR:StopPlace:38210,,Ikornnes,,62.38592,6.554493,,,1,,2,,,700
NSR:StopPlace:59155,,Jendem Bygdavegen,,62.78944,7.025617,,,1,,2,,,700
NSR:StopPlace:38216,,Ikornnes ungdomshus,,62.3864,6.551552,,,1,,2,,,700
NSR:StopPlace:38215,,Eidsvollan,,62.58906,7.479217,,,1,,2,,,700
NSR:StopPlace:39549,,Tørneset,,62.559074,6.048583,,,1,,2,,,700
NSR:StopPlace:38214,,Visnes nord,,62.955013,7.393259,,,1,,2,,,700
NSR:StopPlace:38213,,Ikornnes sør,,62.38362,6.553868,,,1,,2,,,700
NSR:StopPlace:39544,,Løvoll,,62.2123,7.160013,,,1,,2,,,700
NSR:StopPlace:38219,,Visnes grendahus,,62.953033,7.407425,,,1,,2,,,700
NSR:StopPlace:38218,,Indergård,,62.884834,7.669789,,,1,,2,,,700
NSR:StopPlace:39547,,Løvoll nedre,,62.02854,5.538972,,,1,,2,,,700
NSR:StopPlace:38217,,Eidsvåg,,62.77689,8.066871,,,1,,2,,,700
NSR:StopPlace:40537,,Barlaupen,,63.27639,8.505708,,,1,,2,,,700
NSR:StopPlace:40538,,Mosmarkvegen Dalevegen,,62.19865,6.140017,,,1,,2,,,700
NSR:StopPlace:40536,,Mosmarkvegen Øvremovegen,,62.197666,6.149216,,,1,,2,,,700
NSR:StopPlace:40532,,Mosmarka Remevegen,,62.197792,6.15303,,,1,,2,,,700
NSR:StopPlace:39551,,Furu,,62.66433,8.610886,,,1,,2,,,700
NSR:StopPlace:39552,,Tøssebro,,62.501686,6.51654,,,1,,2,,,700
NSR:StopPlace:39554,,Tøssesvingen,,62.47806,6.71384,,,1,,2,,,700
NSR:StopPlace:38223,,Indre Bolsøya,,62.731934,7.340136,,,1,,2,,,700
NSR:StopPlace:38222,,Vistdal,,62.716114,7.941527,,,1,,2,,,700
NSR:StopPlace:38221,,Eidsøra,,62.800938,8.175987,,,1,,2,,,700
NSR:StopPlace:39550,,Løvoll øvre,,62.022,5.543713,,,1,,2,,,700
NSR:StopPlace:39559,,Magerholm ferjekai,,62.43243,6.497494,,,1,,2,,,700
NSR:StopPlace:38226,,Indre Eide,,62.1862,7.163262,,,1,,2,,,700
NSR:StopPlace:38224,,Vistdal kyrkje,,62.720306,7.932802,,,1,,2,,,700
NSR:StopPlace:39556,,Furugrenda,,62.663498,8.619739,,,1,,2,,,700
NSR:StopPlace:38229,,Eidså,,62.119827,5.672742,,,1,,2,,,700
NSR:StopPlace:39557,,Låtra,,62.09203,5.573429,,,1,,2,,,700
NSR:StopPlace:39558,,Tøvik,,62.983974,7.366238,,,1,,2,,,700
NSR:StopPlace:38228,,Indre Eide gamlevegen,,62.181797,7.16083,,,1,,2,,,700
NSR:StopPlace:40548,,Movegen/Ødegårdvegen,,62.313988,6.941449,,,1,,2,,,700
NSR:StopPlace:40549,,Barstadvik skule,,62.35978,6.267923,,,1,,2,,,700
NSR:StopPlace:40546,,Barstadvik,,62.359337,6.260085,,,1,,2,,,700
NSR:StopPlace:41873,,Horvlia,,62.578445,9.370187,,,1,,2,,,700
NSR:StopPlace:40551,,Moørene,,62.633804,8.826434,,,1,,2,,,700
NSR:StopPlace:39562,,Ugelvik,,62.703335,6.708637,,,1,,2,,,700
NSR:StopPlace:40552,,Batnfjord skule,,62.892864,7.678521,,,1,,2,,,700
NSR:StopPlace:39563,,Magerøy,,62.71409,6.653191,,,1,,2,,,700
NSR:StopPlace:59173,,Grip hurtigbåtkai,,63.21827,7.593884,,,1,,2,,,1000
NSR:StopPlace:38234,,Leitebakkane,,62.108437,5.667893,,,1,,2,,,700
NSR:StopPlace:38233,,Indre Eide kryss gamlevegen,,62.1801,7.165505,,,1,,2,,,700
NSR:StopPlace:60163,,Digernesskiftet E39,,62.489746,6.604945,,,1,,2,,,
NSR:StopPlace:38238,,Voksa ferjekai,,62.2152,5.474437,,,1,,2,,,700
NSR:StopPlace:38237,,Eidså nord,,62.126537,5.67285,,,1,,2,,,700
NSR:StopPlace:38236,,Indre Hoem,,62.817394,7.065363,,,1,,2,,,700
NSR:StopPlace:39566,,Uggedal,,62.5323,6.323911,,,1,,2,,,700
NSR:StopPlace:39567,,Malaga,,62.461628,6.275927,,,1,,2,,,700
NSR:StopPlace:39568,,Uggedal Kveldsro,,62.53125,6.278254,,,1,,2,,,700
NSR:StopPlace:38239,,Indre Holmen,,62.60876,7.544599,,,1,,2,,,700
NSR:StopPlace:39569,,Male,,62.966183,7.068133,,,1,,2,,,700
NSR:StopPlace:40559,,Bautaen,,62.576733,6.118735,,,1,,2,,,700
NSR:StopPlace:40557,,Mulvik,,62.852848,8.436668,,,1,,2,,,700
NSR:StopPlace:40558,,Sjøholt,,62.481712,6.816668,,,1,,2,,,700
NSR:StopPlace:41889,,Tyve,,62.615227,9.584099,,,1,,2,,,700
NSR:StopPlace:40555,,Muldal,,62.25111,7.431068,,,1,,2,,,700
NSR:StopPlace:40556,,Batterikrysset,,62.648094,6.937027,,,1,,2,,,700
NSR:StopPlace:40554,,Batnfjordsøra,,62.892193,7.679196,,,1,,2,,,700
NSR:StopPlace:38241,,Eie,,62.784405,7.557836,,,1,,2,,,700
NSR:StopPlace:40562,,Bedehuset Langveien,,63.109818,7.728194,,,1,,2,,,700
NSR:StopPlace:38240,,Volda ferjekai,,62.144794,6.064015,,,1,,2,,,700
NSR:StopPlace:39574,,Malme,,62.805492,7.224893,,,1,,2,,,700
NSR:StopPlace:40563,,Musgjerd,,62.591026,8.994909,,,1,,2,,,700
NSR:StopPlace:40560,,Muren,,62.258682,5.554873,,,1,,2,,,700
NSR:StopPlace:39575,,Ulla,,62.679665,6.190912,,,1,,2,,,700
NSR:StopPlace:39576,,Futsæterhøgda,,63.10279,7.640462,,,1,,2,,,700
NSR:StopPlace:38245,,Volda pleieheim,,62.15298,6.050622,,,1,,2,,,700
NSR:StopPlace:39570,,Futsæter,,63.102844,7.647871,,,1,,2,,,700
NSR:StopPlace:38244,,Indre Roksvåg,,63.392895,8.16257,,,1,,2,,,700
NSR:StopPlace:38243,,Eik,,62.65232,7.338803,,,1,,2,,,700
NSR:StopPlace:39571,,Ulfsnes,,63.35697,8.686087,,,1,,2,,,700
NSR:StopPlace:39572,,Malefeten,,62.961975,7.084153,,,1,,2,,,700
NSR:StopPlace:38242,,Indre Mjelve,,62.77167,7.455062,,,1,,2,,,700
NSR:StopPlace:38249,,Indre Tokle,,62.57794,7.780776,,,1,,2,,,700
NSR:StopPlace:38246,,Indre Slemmå,,62.688435,7.613758,,,1,,2,,,700
NSR:StopPlace:39578,,Ullahammaren,,62.677612,6.197174,,,1,,2,,,700
NSR:StopPlace:40568,,Sjøli,,63.343372,8.830092,,,1,,2,,,700
NSR:StopPlace:40569,,Beiteråsen,,63.03909,8.045208,,,1,,2,,,700
NSR:StopPlace:40564,,Giske bedehus,,62.504967,6.047593,,,1,,2,,,700
NSR:StopPlace:40565,,Musgjerd,,62.592922,8.970205,,,1,,2,,,700
NSR:StopPlace:37720,,Hoemsbakken,,62.962822,8.027241,,,1,,2,,,700
NSR:StopPlace:37725,,Rønsvik,,63.386837,8.567714,,,1,,2,,,700
NSR:StopPlace:37724,,Rønstad,,62.61312,6.161793,,,1,,2,,,700
NSR:StopPlace:37723,,Hoemskrysset,,62.96242,8.017691,,,1,,2,,,700
NSR:StopPlace:37722,,Varleitekrysset,,62.340515,5.892414,,,1,,2,,,700
NSR:StopPlace:37729,,Vartdal,,62.300976,6.083543,,,1,,2,,,700
NSR:StopPlace:37727,,Hoemslia,,62.812653,7.021934,,,1,,2,,,700
NSR:StopPlace:60984,,Skjervavegen,,62.659878,6.583817,,,1,,2,,,700
NSR:StopPlace:37732,,Hoff vest,,62.493313,6.199743,,,1,,2,,,700
NSR:StopPlace:37730,,Hoff,,62.496754,6.212471,,,1,,2,,,700
NSR:StopPlace:37735,,Rørstad,,62.081005,6.512501,,,1,,2,,,700
NSR:StopPlace:58656,,Linge ferjekai,,62.28448,7.187237,,,1,,2,,,1000
NSR:StopPlace:59988,,Aspevika,,62.28047,5.76866,,,1,,2,,,700
NSR:StopPlace:37733,,Rørset,,62.730576,6.772882,,,1,,2,,,700
NSR:StopPlace:37739,,Hoffseidet,,62.502186,6.23137,,,1,,2,,,700
NSR:StopPlace:37738,,Rørstad,,62.432045,6.278548,,,1,,2,,,700
NSR:StopPlace:37737,,Hoff øst,,62.49792,6.216577,,,1,,2,,,700
NSR:StopPlace:37743,,Rørvik,,62.56932,6.108353,,,1,,2,,,700
NSR:StopPlace:37742,,Hofset,,62.57911,6.626078,,,1,,2,,,700
NSR:StopPlace:37741,,Rørstadvegen,,62.462254,6.283771,,,1,,2,,,700
NSR:StopPlace:37740,,Vartdal helsetun,,62.322025,6.13669,,,1,,2,,,700
NSR:StopPlace:37745,,Røsberg,,62.787086,7.577308,,,1,,2,,,700
NSR:StopPlace:37744,,Vartdal kyrkje,,62.32455,6.142841,,,1,,2,,,700
NSR:StopPlace:37748,,Vartdal Plast,,62.314716,6.110117,,,1,,2,,,700
NSR:StopPlace:44031,,City Syd E6,,63.361156,10.373264,,,1,,2,,,700
NSR:StopPlace:44033,,Gafset,,63.32389,10.240162,,,1,,2,,,700
NSR:StopPlace:37752,,Røsok,,62.741295,6.435427,,,1,,2,,,700
NSR:StopPlace:37758,,Røssevollkrysset,,62.43615,6.435998,,,1,,2,,,700
NSR:StopPlace:37757,,Hoksnes,,62.82348,6.949828,,,1,,2,,,700
NSR:StopPlace:37756,,Vartdal Strand,,62.309174,6.100622,,,1,,2,,,700
NSR:StopPlace:37759,,Røsslyngveien,,63.121582,7.743016,,,1,,2,,,700
NSR:StopPlace:44047,,Garberg,,63.101746,9.477258,,,1,,2,,,700
NSR:StopPlace:37761,,Sætre,,62.303745,6.092865,,,1,,2,,,700
NSR:StopPlace:37760,,Hoksneskrysset,,62.824013,6.929417,,,1,,2,,,700
NSR:StopPlace:37765,,Varvik,,62.948566,8.0619,,,1,,2,,,700
NSR:StopPlace:37764,,Røssøyvågen,,62.817284,6.803904,,,1,,2,,,700
NSR:StopPlace:37762,,Røssvika,,62.557545,6.040384,,,1,,2,,,700
NSR:StopPlace:37769,,Røssvikkrysset,,62.552967,6.052788,,,1,,2,,,700
NSR:StopPlace:37768,,Vaskeriet,,62.469402,6.384304,,,1,,2,,,700
NSR:StopPlace:37766,,Hol,,62.80347,7.171482,,,1,,2,,,700
NSR:StopPlace:37770,,Hole,,62.299747,6.69284,,,1,,2,,,700
NSR:StopPlace:37776,,Klipra,,62.733288,7.413905,,,1,,2,,,700
NSR:StopPlace:37774,,Hole,,62.094967,7.226577,,,1,,2,,,700
NSR:StopPlace:37773,,Vassenden,,62.1583,6.229694,,,1,,2,,,700
NSR:StopPlace:37779,,Røvikhagen,,62.73343,7.402163,,,1,,2,,,700
NSR:StopPlace:35115,,Bryggja,,61.941845,5.449023,,,1,,2,,,700
NSR:StopPlace:37778,,Hole,,62.514854,7.764785,,,1,,2,,,700
NSR:StopPlace:37777,,Vassenden,,62.932137,7.214548,,,1,,2,,,700
NSR:StopPlace:37783,,Røyr,,62.18267,6.926466,,,1,,2,,,700
NSR:StopPlace:37782,,Brudevoll,,62.29768,6.684843,,,1,,2,,,700
NSR:StopPlace:37786,,Røyra øst,,62.321705,5.713182,,,1,,2,,,700
NSR:StopPlace:37785,,Hole Utsikten Hotell,,62.092567,7.224592,,,1,,2,,,700
NSR:StopPlace:37788,,Røyra vest,,62.32152,5.70708,,,1,,2,,,700
NSR:StopPlace:37790,,Hole øst,,62.302013,6.698535,,,1,,2,,,700
NSR:StopPlace:37794,,Holen,,62.200226,6.439414,,,1,,2,,,700
NSR:StopPlace:37793,,Røysa,,62.552425,6.122752,,,1,,2,,,700
NSR:StopPlace:37792,,Ågrenda,,62.95338,7.547352,,,1,,2,,,700
NSR:StopPlace:37791,,Røyrhus bru,,62.028652,6.74578,,,1,,2,,,700
NSR:StopPlace:37798,,Vatne,,62.559032,6.617541,,,1,,2,,,700
NSR:StopPlace:37796,,Røysebakken,,62.471447,6.170373,,,1,,2,,,700
NSR:StopPlace:37799,,Holen,,62.440716,6.223519,,,1,,2,,,700
NSR:StopPlace:42245,,Vinje kirke,,63.20724,9.001386,,,1,,2,,,700
NSR:StopPlace:59905,,Hareid ungdomsskule,,62.368023,6.017732,,,1,,2,,,700
NSR:StopPlace:42248,,Vinjeøra,,63.202847,8.98323,,,1,,2,,,700
NSR:StopPlace:43588,,Rundhaugen,,63.293983,9.844921,,,1,,2,,,700
NSR:StopPlace:43583,,Orkanger skysstasjon,,63.298325,9.847541,,,1,,2,,,700
NSR:StopPlace:58601,,Eikrem,,62.998436,8.031505,,,1,,2,,,700
NSR:StopPlace:58602,,Treekrem,,62.994446,8.039441,,,1,,2,,,700
NSR:StopPlace:60923,,Storhallen,,62.392605,6.589976,,,1,,2,,,700
NSR:StopPlace:42260,,Vognillan,,62.61567,9.576274,,,1,,2,,,700
NSR:StopPlace:60910,,Moavegen,,62.470036,6.341338,,,1,,2,,,700
NSR:StopPlace:37702,,Rødsetvegen,,62.84096,7.064295,,,1,,2,,,700
NSR:StopPlace:37701,,Rødsetstranda øst,,62.478996,6.452924,,,1,,2,,,700
NSR:StopPlace:37700,,Hoel bru,,62.337234,7.389371,,,1,,2,,,700
NSR:StopPlace:37707,,Rødstøl,,62.315567,8.094293,,,1,,2,,,700
NSR:StopPlace:37706,,Varde,,63.111168,7.787918,,,1,,2,,,700
NSR:StopPlace:37704,,Hoelsand Myrhaugen,,62.66215,8.63147,,,1,,2,,,700
NSR:StopPlace:60962,,Vikåsen,,62.59761,7.254623,,,1,,2,,,700
NSR:StopPlace:60963,,Talberg,,62.6029,7.272443,,,1,,2,,,700
NSR:StopPlace:44008,,Furunes,,62.604572,9.442929,,,1,,2,,,700
NSR:StopPlace:37710,,Rødven handelslag,,62.63211,7.493882,,,1,,2,,,700
NSR:StopPlace:37713,,Varholmkrysset,,62.24046,5.459602,,,1,,2,,,700
NSR:StopPlace:37712,,Rødven snuplass,,62.639435,7.47697,,,1,,2,,,700
NSR:StopPlace:37711,,Hoem,,62.548553,7.152544,,,1,,2,,,700
NSR:StopPlace:37717,,Rønneberg,,62.233963,7.139553,,,1,,2,,,700
NSR:StopPlace:37716,,Varleite nedre,,62.34117,5.886481,,,1,,2,,,700
NSR:StopPlace:37715,,Hoem,,62.817062,7.048486,,,1,,2,,,700
NSR:StopPlace:37719,,Rønnestad,,62.148808,5.427194,,,1,,2,,,700
NSR:StopPlace:44000,,Børskrysset E39,,63.322033,10.063109,,,1,,2,,,700
NSR:StopPlace:40452,,Molde stadion,,62.733994,7.148754,,,1,,2,,,700
NSR:StopPlace:39463,,Løfald,,63.093105,9.257284,,,1,,2,,,700
NSR:StopPlace:38131,,Eide bedehus,,62.195152,7.155376,,,1,,2,,,700
NSR:StopPlace:39464,,Trøan,,62.436302,7.857041,,,1,,2,,,700
NSR:StopPlace:39465,,Furene,,62.172184,6.045341,,,1,,2,,,700
NSR:StopPlace:40450,,Molde sjukehus sør,,62.736195,7.139222,,,1,,2,,,700
NSR:StopPlace:39466,,Løfoll,,62.06541,6.28615,,,1,,2,,,700
NSR:StopPlace:40451,,Aukrasenteret,,62.804146,6.888335,,,1,,2,,,700
NSR:StopPlace:38135,,Hølevegen/Halvardsrema,,62.505566,6.042637,,,1,,2,,,700
NSR:StopPlace:39460,,Lysøykrysset,,63.04603,7.413949,,,1,,2,,,700
NSR:StopPlace:38134,,Eide kryss Kleiva,,62.193436,7.154346,,,1,,2,,,700
NSR:StopPlace:38132,,Vike skule,,62.617973,7.150217,,,1,,2,,,700
NSR:StopPlace:39462,,Træffhuset,,62.740654,7.151312,,,1,,2,,,700
NSR:StopPlace:38139,,Eidem,,62.852875,7.128955,,,1,,2,,,700
NSR:StopPlace:38138,,Høljenes,,62.54816,7.716736,,,1,,2,,,700
NSR:StopPlace:38137,,Eidehallen,,62.919956,7.450211,,,1,,2,,,700
NSR:StopPlace:38136,,Vikebukt E136,,62.61332,7.146189,,,1,,2,,,700
NSR:StopPlace:39467,,Trøknaholt,,63.094303,9.225445,,,1,,2,,,700
NSR:StopPlace:39468,,Løhaugen,,62.4813,6.779141,,,1,,2,,,700
NSR:StopPlace:39469,,Furland,,62.62243,7.002978,,,1,,2,,,700
NSR:StopPlace:40459,,Sivilforsvaret,,62.564423,7.840726,,,1,,2,,,700
NSR:StopPlace:40457,,Molde legevakt,,62.739433,7.16237,,,1,,2,,,700
NSR:StopPlace:40454,,Aune,,63.044388,9.142975,,,1,,2,,,700
NSR:StopPlace:40455,,Molde vgs.,,62.73882,7.165344,,,1,,2,,,700
NSR:StopPlace:39474,,Tuenesvegen,,62.469406,6.114203,,,1,,2,,,700
NSR:StopPlace:39475,,Løkkemyra Handelspark,,63.11043,7.799164,,,1,,2,,,700
NSR:StopPlace:38141,,Hønebukta,,63.106888,7.735774,,,1,,2,,,700
NSR:StopPlace:40461,,Aure,,63.267807,8.530555,,,1,,2,,,700
NSR:StopPlace:39476,,Elvestad,,62.61885,6.97111,,,1,,2,,,700
NSR:StopPlace:38140,,Vikebukt kai,,62.615223,7.146727,,,1,,2,,,700
NSR:StopPlace:39477,,Tungset,,62.96843,7.44153,,,1,,2,,,700
NSR:StopPlace:39470,,Trøneset,,63.352474,8.683997,,,1,,2,,,700
NSR:StopPlace:40460,,Moldegård,,62.737167,7.179204,,,1,,2,,,700
NSR:StopPlace:39472,,Løkkemyra,,63.11009,7.789407,,,1,,2,,,700
NSR:StopPlace:38143,,Høstmarkberga,,62.73499,7.132947,,,1,,2,,,700
NSR:StopPlace:39473,,Misfjordkrysset,,62.622337,7.014693,,,1,,2,,,700
NSR:StopPlace:38149,,Vikebygdvegen,,62.146816,6.08723,,,1,,2,,,700
NSR:StopPlace:38147,,Høvik,,62.772766,8.007378,,,1,,2,,,700
NSR:StopPlace:39478,,Løkkjabekken,,62.652847,8.681394,,,1,,2,,,700
NSR:StopPlace:39479,,Løndalskiftet,,62.46758,6.364466,,,1,,2,,,700
NSR:StopPlace:40469,,Aureosen byggefelt,,62.81546,7.101603,,,1,,2,,,700
NSR:StopPlace:39480,,Tunheim sør,,62.085022,5.583879,,,1,,2,,,700
NSR:StopPlace:38153,,Vikedalen,,62.377056,6.591664,,,1,,2,,,700
NSR:StopPlace:39485,,Lønset ferjekai,,62.761395,7.38261,,,1,,2,,,700
NSR:StopPlace:40475,,Molnes byggefelt,,62.580177,6.101982,,,1,,2,,,700
NSR:StopPlace:39486,,Turisthytta,,62.540222,6.958554,,,1,,2,,,700
NSR:StopPlace:38151,,Eidemsbakken,,62.856636,7.134051,,,1,,2,,,700
NSR:StopPlace:39487,,Lønsethagen vest,,62.762337,7.39028,,,1,,2,,,700
NSR:StopPlace:40472,,Sjukeheimen,,62.67215,6.677844,,,1,,2,,,700
NSR:StopPlace:39488,,Tuskogen,,62.39196,6.462187,,,1,,2,,,700
NSR:StopPlace:40473,,Molnes snuplass,,62.58325,6.08229,,,1,,2,,,700
NSR:StopPlace:38157,,Eidestranda,,63.301033,8.538837,,,1,,2,,,700
NSR:StopPlace:39481,,Furlandkrysset,,62.622395,6.994226,,,1,,2,,,700
NSR:StopPlace:40471,,Aureosen skole,,62.809086,7.09067,,,1,,2,,,700
NSR:StopPlace:39482,,Lønset,,62.76022,7.369554,,,1,,2,,,700
NSR:StopPlace:39483,,Tunheim nord,,62.087097,5.576755,,,1,,2,,,700
NSR:StopPlace:38155,,Høydal gammelbutikken,,62.07437,6.213888,,,1,,2,,,700
NSR:StopPlace:38154,,Eidemskrysset,,62.854195,7.137729,,,1,,2,,,700
NSR:StopPlace:39484,,Furlia,,62.498325,6.732956,,,1,,2,,,700
NSR:StopPlace:38158,,Høydal Høydalsdalen,,62.07376,6.221268,,,1,,2,,,700
NSR:StopPlace:39489,,Furmyrhagen,,62.46505,6.337451,,,1,,2,,,700
NSR:StopPlace:39490,,Tussa,,62.096302,5.574307,,,1,,2,,,700
NSR:StopPlace:39491,,Lønsethagen øst,,62.76372,7.399339,,,1,,2,,,700
NSR:StopPlace:38160,,Vikenes gamlevegen,,62.49448,6.332855,,,1,,2,,,700
NSR:StopPlace:40478,,Midsund sjukeheim,,62.672665,6.678789,,,1,,2,,,700
NSR:StopPlace:40479,,Aurstad,,62.082928,6.293095,,,1,,2,,,700
NSR:StopPlace:40476,,Aursnesvegen,,62.40805,6.560045,,,1,,2,,,700
NSR:StopPlace:40477,,Molnes kryss,,62.5799,6.107589,,,1,,2,,,700
NSR:StopPlace:43501,,Dronningens gate,Flybuss,63.431973,10.393004,,,1,,2,,,700
NSR:StopPlace:40485,,Moltu midtre,,62.293755,5.626226,,,1,,2,,,700
NSR:StopPlace:39496,,Løset,,62.093967,5.714318,,,1,,2,,,700
NSR:StopPlace:38163,,Vikenes vest gamleveien,,62.494537,6.329267,,,1,,2,,,700
NSR:StopPlace:40486,,Haramsøy skule,,62.645035,6.261279,,,1,,2,,,700
NSR:StopPlace:40483,,Aurvåg,,62.2828,5.779838,,,1,,2,,,700
NSR:StopPlace:38162,,Høydalsnes,,62.082626,6.18567,,,1,,2,,,700
NSR:StopPlace:40484,,Saunes nord,,62.335686,5.855389,,,1,,2,,,700
NSR:StopPlace:39499,,Tusvika,,62.3975,6.47215,,,1,,2,,,700
NSR:StopPlace:38161,,Eidevegen,,62.153625,6.313487,,,1,,2,,,700
NSR:StopPlace:40481,,Aurvoll,,62.226345,5.715263,,,1,,2,,,700
NSR:StopPlace:38168,,Ytre Eidhammer,,62.535446,7.12896,,,1,,2,,,700
NSR:StopPlace:40482,,Moltu indre,,62.295403,5.638758,,,1,,2,,,700
NSR:StopPlace:38167,,Høyvika,,62.495453,6.458646,,,1,,2,,,700
NSR:StopPlace:39494,,Løset,,61.99281,6.078161,,,1,,2,,,700
NSR:StopPlace:38166,,Vikestrand,,62.073063,6.236892,,,1,,2,,,700
NSR:StopPlace:40480,,Sjøgarden,,62.77461,8.053483,,,1,,2,,,700
NSR:StopPlace:38165,,Indre Eidhammer,,62.53041,7.127798,,,1,,2,,,700
NSR:StopPlace:40489,,Sjukehuslomma,,62.46554,6.311836,,,1,,2,,,700
NSR:StopPlace:59090,,Øye hurtigbåtkai,,62.194763,6.65267,,,1,,2,,,1000
NSR:StopPlace:38170,,Neråskrysset,,62.614887,6.948904,,,1,,2,,,700
NSR:StopPlace:40487,,Moltu butikk,,62.29427,5.633562,,,1,,2,,,700
NSR:StopPlace:40488,,Haramsøya kai,,62.637352,6.275609,,,1,,2,,,700
NSR:StopPlace:40496,,Avset,,62.961685,7.595179,,,1,,2,,,700
NSR:StopPlace:40497,,Mordal,,62.73246,7.00871,,,1,,2,,,700
NSR:StopPlace:38174,,Håhjemsvika,,62.486176,6.688968,,,1,,2,,,700
NSR:StopPlace:40494,,Sjurliskiftet,,62.913357,7.235706,,,1,,2,,,700
NSR:StopPlace:38172,,Vikkrysset,,62.615982,6.954083,,,1,,2,,,700
NSR:StopPlace:40492,,Moltu skule,,62.294647,5.635533,,,1,,2,,,700
NSR:StopPlace:38179,,Eidsdal skule,,62.255882,7.163884,,,1,,2,,,700
NSR:StopPlace:40493,,Averøy ungdomsskole,,63.049866,7.636759,,,1,,2,,,700
NSR:StopPlace:38177,,Hånes,,62.169727,5.721497,,,1,,2,,,700
NSR:StopPlace:38176,,Eidsdal ferjekai,,62.262707,7.172013,,,1,,2,,,700
NSR:StopPlace:38181,,Villa,,62.57506,7.153595,,,1,,2,,,700
NSR:StopPlace:40498,,Avsnitten,,62.7407,7.181631,,,1,,2,,,700
NSR:StopPlace:38180,,Hånes,,62.661556,6.239724,,,1,,2,,,700
NSR:StopPlace:40499,,Sjøbakken,,62.818096,6.817987,,,1,,2,,,700
NSR:StopPlace:38186,,Eidseter,,62.805943,7.579605,,,1,,2,,,700
NSR:StopPlace:38185,,Håsen,,62.671185,8.549697,,,1,,2,,,700
NSR:StopPlace:38184,,Ville,,62.18051,6.378109,,,1,,2,,,700
NSR:StopPlace:38183,,Eidsdal Granlund,,62.251163,7.159617,,,1,,2,,,700
NSR:StopPlace:38189,,Eidshagen,,62.593956,7.507267,,,1,,2,,,700
NSR:StopPlace:38188,,Håberga,,62.850464,7.109651,,,1,,2,,,700
NSR:StopPlace:38187,,Røv,,62.992664,8.942763,,,1,,2,,,700
NSR:StopPlace:38193,,Vinje,,62.094887,7.218106,,,1,,2,,,700
NSR:StopPlace:38192,,Eidskrem,,62.755497,6.998108,,,1,,2,,,700
NSR:StopPlace:38191,,Håset,,62.84842,7.099571,,,1,,2,,,700
NSR:StopPlace:38190,,Vindgårdskiftet,,62.46507,6.343961,,,1,,2,,,700
NSR:StopPlace:38197,,Vinsternes nord,,63.251217,8.315601,,,1,,2,,,700
NSR:StopPlace:38196,,Håvik,,62.064915,6.259794,,,1,,2,,,700
NSR:StopPlace:43543,,Oppdal skysstasjon,,62.593582,9.695277,,,1,,2,,,700
NSR:StopPlace:38195,,Vinsternes,,63.245495,8.29046,,,1,,2,,,700
NSR:StopPlace:38194,,Grovabukta,,62.847397,7.091465,,,1,,2,,,700
NSR:StopPlace:43540,,Dørremsgrenda,,62.61549,9.537452,,,1,,2,,,700
NSR:StopPlace:38198,,Håvikmyrane,,62.582283,6.452098,,,1,,2,,,700
NSR:StopPlace:37680,,Valle skole,,62.47841,6.661038,,,1,,2,,,700
NSR:StopPlace:37684,,Rødset,,62.241276,6.908166,,,1,,2,,,700
NSR:StopPlace:37683,,Hjørungavåg,,62.348137,6.064574,,,1,,2,,,700
NSR:StopPlace:37682,,Vallehaugen,,62.798443,7.079414,,,1,,2,,,700
NSR:StopPlace:37681,,Rødset,,62.77558,8.526203,,,1,,2,,,700
NSR:StopPlace:37687,,Rødset,,62.24566,5.538992,,,1,,2,,,700
NSR:StopPlace:37686,,Hjørungavåg skule,,62.345566,6.060323,,,1,,2,,,700
NSR:StopPlace:37685,,Valsøya,,63.142143,8.533605,,,1,,2,,,700
NSR:StopPlace:37689,,Hjørungdal,,62.330105,6.035913,,,1,,2,,,700
NSR:StopPlace:37695,,Rødsetstranda,,62.47746,6.446029,,,1,,2,,,700
NSR:StopPlace:37694,,Vandberg,,62.466354,6.270176,,,1,,2,,,700
NSR:StopPlace:37699,,Rødsetstranda Reiten,,62.47751,6.439794,,,1,,2,,,700
NSR:StopPlace:37698,,Vard Tennfjord,,62.533894,6.589054,,,1,,2,,,700
NSR:StopPlace:37697,,Rødsetstranda vest,,62.477867,6.428663,,,1,,2,,,700
NSR:StopPlace:37696,,Hoel,,63.01393,7.539502,,,1,,2,,,700
NSR:StopPlace:39400,,Trastbygda,,63.033237,7.775005,,,1,,2,,,700
NSR:StopPlace:39405,,Tredal skole,,62.66529,8.533977,,,1,,2,,,700
NSR:StopPlace:39404,,Longva barnehage,,62.66197,6.287906,,,1,,2,,,700
NSR:StopPlace:60009,,Smøla skole,,63.46038,8.009709,,,1,,2,,,700
NSR:StopPlace:39409,,Tredalsvegen Slettgata,,62.667294,8.545657,,,1,,2,,,700
NSR:StopPlace:39410,,Longva øvstevegen,,62.66599,6.276821,,,1,,2,,,700
NSR:StopPlace:39411,,Frøyset,,62.627666,7.528766,,,1,,2,,,700
NSR:StopPlace:39416,,Tregardane,,62.295273,6.643719,,,1,,2,,,700
NSR:StopPlace:39417,,Lubbenes,,62.740906,7.22024,,,1,,2,,,700
NSR:StopPlace:39418,,Frøystadvåg,,62.3284,5.702801,,,1,,2,,,700
NSR:StopPlace:39419,,Ytre Eide,,62.92366,7.447591,,,1,,2,,,700
NSR:StopPlace:39412,,Treekerhagen,,62.98555,8.042644,,,1,,2,,,700
NSR:StopPlace:39413,,Lorgja vest,,62.51551,6.300853,,,1,,2,,,700
NSR:StopPlace:39415,,Lorgja øst,,62.51477,6.306812,,,1,,2,,,700
NSR:StopPlace:40409,,Asphol,,62.80464,7.758738,,,1,,2,,,700
NSR:StopPlace:40405,,ASKO,,62.20238,6.143886,,,1,,2,,,700
NSR:StopPlace:40406,,Silset,,62.930836,7.444278,,,1,,2,,,700
NSR:StopPlace:40404,,Moa trafikkterminal,,62.467136,6.351479,,,1,,2,,,700
NSR:StopPlace:40401,,Askevågen kryss,,62.96333,7.054548,,,1,,2,,,700
NSR:StopPlace:40402,,Moa,,62.571365,7.838977,,,1,,2,,,700
NSR:StopPlace:39420,,Ludvikdalen,,62.4329,6.427314,,,1,,2,,,700
NSR:StopPlace:39421,,Tresfjord,,62.525368,7.125802,,,1,,2,,,700
NSR:StopPlace:60021,,Voksa hurtigbåtkai,,62.21562,5.475032,,,1,,2,,,1000
NSR:StopPlace:60022,,Kvamsøya hurtigbåtkai,,62.197468,5.420975,,,1,,2,,,1000
NSR:StopPlace:60020,,Åram hurtigbåtkai,,62.198174,5.496155,,,1,,2,,,1000
NSR:StopPlace:39427,,Tresfjord kyrkje,,62.522102,7.139376,,,1,,2,,,700
NSR:StopPlace:39428,,Lurvik,,63.255863,8.498012,,,1,,2,,,700
NSR:StopPlace:39424,,Tresfjord kro,,62.52225,7.128912,,,1,,2,,,700
NSR:StopPlace:39426,,Frøystadkrysset,,62.331276,5.704844,,,1,,2,,,700
NSR:StopPlace:40418,,Aston,,62.57982,7.824652,,,1,,2,,,700
NSR:StopPlace:40419,,Sima,,62.51363,6.131674,,,1,,2,,,700
NSR:StopPlace:40416,,Moan,,63.04729,9.190908,,,1,,2,,,700
NSR:StopPlace:40414,,Moabrua,,62.84127,7.231112,,,1,,2,,,700
NSR:StopPlace:60023,,Urke hurtigbåtkai,,62.20887,6.573145,,,1,,2,,,1000
NSR:StopPlace:40415,,Astad E39,,62.901485,7.676573,,,1,,2,,,700
NSR:StopPlace:60029,,Øvre Jarnes vest,,62.390232,6.541757,,,1,,2,,,700
NSR:StopPlace:40412,,Astad fv. 286,,62.899895,7.676355,,,1,,2,,,700
NSR:StopPlace:40413,,Silset nedre,,62.88211,7.660545,,,1,,2,,,700
NSR:StopPlace:40411,,Aspåsen,,62.889065,8.015503,,,1,,2,,,700
NSR:StopPlace:41742,,Trondheim S,,63.436108,10.40108,,,1,,2,,,700
NSR:StopPlace:39430,,Lykkja,,62.867462,7.013951,,,1,,2,,,700
NSR:StopPlace:39432,,Øvstedalkrysset,,62.520695,7.136646,,,1,,2,,,700
NSR:StopPlace:39433,,Lykkjå,,62.805096,7.678515,,,1,,2,,,700
NSR:StopPlace:38102,,Vikan,,63.370193,8.692761,,,1,,2,,,700
NSR:StopPlace:38100,,Høgset E39,,62.964397,7.769092,,,1,,2,,,700
NSR:StopPlace:39438,,Fuglevåg,,62.835056,8.499505,,,1,,2,,,700
NSR:StopPlace:59026,,Bugarden vest,,62.34919,5.84757,,,1,,2,,,700
NSR:StopPlace:38105,,Demingane,,62.327446,5.646317,,,1,,2,,,700
NSR:StopPlace:39439,,Lyngstad,,62.963455,7.358636,,,1,,2,,,700
NSR:StopPlace:38108,,Egset,,62.16486,6.039236,,,1,,2,,,700
NSR:StopPlace:39436,,Lyngnes,,62.09683,5.927606,,,1,,2,,,700
NSR:StopPlace:39437,,Trollhaugen,,62.496986,6.117083,,,1,,2,,,700
NSR:StopPlace:40429,,Atlanterhavsvegen,,63.01811,7.363499,,,1,,2,,,700
NSR:StopPlace:40427,,Atlanterhavsparken,,62.465508,6.097206,,,1,,2,,,700
NSR:StopPlace:40425,,Simabakken,,62.429028,6.275237,,,1,,2,,,700
NSR:StopPlace:40426,,Modalskrysset,,62.958344,8.702274,,,1,,2,,,700
NSR:StopPlace:40423,,Idrettsparken,,63.125534,7.735365,,,1,,2,,,700
NSR:StopPlace:60019,,Larsnes hurtigbåtkai,,62.207073,5.569282,,,1,,2,,,1000
NSR:StopPlace:40421,,Atlanten,,63.123043,7.735165,,,1,,2,,,700
NSR:StopPlace:40430,,Moen boligfelt,,62.840282,7.239371,,,1,,2,,,700
NSR:StopPlace:39441,,Fuglvågen,,63.37934,7.943161,,,1,,2,,,700
NSR:StopPlace:40431,,Simabakken,,62.513134,6.130176,,,1,,2,,,700
NSR:StopPlace:39444,,Lyngstad,,62.959724,7.361741,,,1,,2,,,700
NSR:StopPlace:41760,,Hol,,62.585747,9.399326,,,1,,2,,,700
NSR:StopPlace:38113,,Vikane,,62.42358,6.298468,,,1,,2,,,700
NSR:StopPlace:38112,,Høgskolen i Molde Julsundvegen,,62.735184,7.104556,,,1,,2,,,700
NSR:StopPlace:38111,,Egsetstranda,,62.15945,6.042137,,,1,,2,,,700
NSR:StopPlace:39440,,Trollkyrkja,,62.86682,7.274759,,,1,,2,,,700
NSR:StopPlace:38110,,Vikan Myren,,62.949234,7.034693,,,1,,2,,,700
NSR:StopPlace:39449,,Tronstad,,62.04243,6.789412,,,1,,2,,,700
NSR:StopPlace:38116,,Eide,,62.194393,7.144111,,,1,,2,,,700
NSR:StopPlace:38115,,Høgskolen i Molde,,62.735947,7.109116,,,1,,2,,,700
NSR:StopPlace:38114,,Eid handelslag,,62.586594,7.497248,,,1,,2,,,700
NSR:StopPlace:39445,,Fuglevågen Ulvund kraft,,62.83351,8.506929,,,1,,2,,,700
NSR:StopPlace:39446,,Trollstigen,,62.45325,7.663656,,,1,,2,,,700
NSR:StopPlace:39447,,Lyngstad skole,,62.96014,7.357623,,,1,,2,,,700
NSR:StopPlace:39448,,Lyshol,,62.400932,6.636183,,,1,,2,,,700
NSR:StopPlace:40438,,Sindrehaug,,62.62585,6.964928,,,1,,2,,,700
NSR:StopPlace:40439,,Molde ferjekai,,62.737007,7.168901,,,1,,2,,,1000
NSR:StopPlace:40434,,Aukan,,63.060898,7.587451,,,1,,2,,,700
NSR:StopPlace:40435,,Aukan,,63.328026,8.424274,,,1,,2,,,700
NSR:StopPlace:40433,,Moen,,62.83822,7.236618,,,1,,2,,,700
NSR:StopPlace:40441,,Aukra ferjekai,,62.780792,6.917157,,,1,,2,,,700
NSR:StopPlace:39452,,Lystad,,62.215244,6.019404,,,1,,2,,,700
NSR:StopPlace:38120,,Eide,,62.914856,7.445224,,,1,,2,,,700
NSR:StopPlace:39453,,Fuglsettjønna,,62.752216,7.192429,,,1,,2,,,700
NSR:StopPlace:39454,,Trygdeheimen,,62.899536,7.695468,,,1,,2,,,700
NSR:StopPlace:39455,,Lystad,,63.147034,8.028419,,,1,,2,,,700
NSR:StopPlace:61364,,Sundgotmarka,,62.31223,5.836138,,,1,,2,,,700
NSR:StopPlace:38123,,Høgskulen i Volda,,62.14731,6.087531,,,1,,2,,,700
NSR:StopPlace:39450,,Fuglset Bunnpris,,62.744076,7.19818,,,1,,2,,,700
NSR:StopPlace:38122,,Vikaskiftet,,63.045975,8.07159,,,1,,2,,,700
NSR:StopPlace:38121,,Campus Ålesund,,62.471485,6.234752,,,1,,2,,,700
NSR:StopPlace:38126,,Vikbukta,,62.690247,7.455944,,,1,,2,,,700
NSR:StopPlace:38125,,Eide Auto,,62.910446,7.434257,,,1,,2,,,700
NSR:StopPlace:39456,,Tryggeset,,62.177116,6.37333,,,1,,2,,,700
NSR:StopPlace:39458,,Lystad skule,,62.212475,6.05815,,,1,,2,,,700
NSR:StopPlace:38129,,Høgstein,,62.46863,6.030914,,,1,,2,,,700
NSR:StopPlace:39459,,Tryggestad,,62.073364,6.803015,,,1,,2,,,700
NSR:StopPlace:40449,,Aukrasanden,,62.78828,6.918628,,,1,,2,,,700
NSR:StopPlace:40447,,Molde sjukehus,,62.7375,7.141129,,,1,,2,,,700
NSR:StopPlace:40448,,Sirivegen,,62.73662,7.08479,,,1,,2,,,700
NSR:StopPlace:40445,,Molde lufthavn Årø,,62.746555,7.260641,,,1,,2,,,700
NSR:StopPlace:40446,,Aukraheimen,,62.80011,6.894284,,,1,,2,,,700
NSR:StopPlace:60038,,Frøystad,,62.33091,5.706853,,,1,,2,,,700
NSR:StopPlace:40444,,Aukra kirke,,62.7912,6.914795,,,1,,2,,,700
NSR:StopPlace:37600,,Runde havn,,62.39792,5.659505,,,1,,2,,,700
NSR:StopPlace:38931,,Helsetvatnet,,62.955868,7.518167,,,1,,2,,,700
NSR:StopPlace:38930,,Leirvikbukta,,62.631542,7.065831,,,1,,2,,,700
NSR:StopPlace:37604,,Runde Leirskule,,62.402634,5.652109,,,1,,2,,,700
NSR:StopPlace:38934,,Helstad skule,,62.25587,6.895761,,,1,,2,,,700
NSR:StopPlace:38933,,Fjøra,,62.94733,7.547574,,,1,,2,,,700
NSR:StopPlace:37601,,Runde kryss Bygda,,62.39139,5.646904,,,1,,2,,,700
NSR:StopPlace:38932,,Ås,,62.62942,7.046662,,,1,,2,,,700
NSR:StopPlace:38939,,Heltnekrysset,,62.54806,6.056824,,,1,,2,,,700
NSR:StopPlace:38938,,Åse,,62.46578,6.32591,,,1,,2,,,700
NSR:StopPlace:37607,,Valderøy ungdomsskule,,62.502052,6.133903,,,1,,2,,,700
NSR:StopPlace:38937,,Helstad,,62.253414,6.897895,,,1,,2,,,700
NSR:StopPlace:38936,,Fjørstad nord,,62.22466,6.912906,,,1,,2,,,700
NSR:StopPlace:37611,,Valedekta,,62.436653,6.27809,,,1,,2,,,700
NSR:StopPlace:38941,,Fjørstad sør,,62.221767,6.913182,,,1,,2,,,700
NSR:StopPlace:38940,,Åse vest,,62.464695,6.304201,,,1,,2,,,700
NSR:StopPlace:37615,,Rusten,,62.10432,5.581466,,,1,,2,,,700
NSR:StopPlace:38946,,Åsen,,62.93994,8.694748,,,1,,2,,,700
NSR:StopPlace:37614,,Valen,,63.08163,7.729148,,,1,,2,,,700
NSR:StopPlace:38945,,Fjørtofta kai,,62.70893,6.422795,,,1,,2,,,700
NSR:StopPlace:38944,,Heltnesundet,,62.147953,6.107664,,,1,,2,,,700
NSR:StopPlace:38943,,Åsen,,62.17663,6.056216,,,1,,2,,,700
NSR:StopPlace:37612,,Rusketeigen,,62.758633,7.354118,,,1,,2,,,700
NSR:StopPlace:37619,,Ryda,,62.105324,5.728842,,,1,,2,,,700
NSR:StopPlace:37618,,Valen,,63.271004,8.49749,,,1,,2,,,700
NSR:StopPlace:38949,,Fjørå,,62.293716,7.316857,,,1,,2,,,700
NSR:StopPlace:37617,,Ruøya,,63.26256,8.498872,,,1,,2,,,700
NSR:StopPlace:37616,,Hjelmeset,,62.329376,5.652975,,,1,,2,,,700
NSR:StopPlace:38947,,Henda,,63.133698,8.405973,,,1,,2,,,700
NSR:StopPlace:37622,,Valesvingen,,62.434673,6.280353,,,1,,2,,,700
NSR:StopPlace:37621,,Hjellmyrnakken,,62.749638,7.186115,,,1,,2,,,700
NSR:StopPlace:37620,,Rykkjem ferjekai,,62.878983,8.486601,,,1,,2,,,1000
NSR:StopPlace:38951,,Henda,,63.054733,7.504539,,,1,,2,,,700
NSR:StopPlace:38957,,Åsestranda,,62.463383,6.299207,,,1,,2,,,700
NSR:StopPlace:37626,,Hjelset,,62.779938,7.493045,,,1,,2,,,700
NSR:StopPlace:38956,,Hennset,,63.13532,8.452174,,,1,,2,,,700
NSR:StopPlace:37625,,Valgermo,,62.47741,6.8635,,,1,,2,,,700
NSR:StopPlace:38955,,Åseskaret,,62.101288,6.171487,,,1,,2,,,700
NSR:StopPlace:37624,,Rypdal,,62.506145,7.142662,,,1,,2,,,700
NSR:StopPlace:37629,,Valgermokrysset,,62.48101,6.863919,,,1,,2,,,700
NSR:StopPlace:37628,,Rysteflata,,62.187065,6.104222,,,1,,2,,,700
NSR:StopPlace:38958,,Hennset ferjekai,,63.135952,8.434033,,,1,,2,,,700
NSR:StopPlace:38960,,Åsmyran,,62.943752,8.699428,,,1,,2,,,700
NSR:StopPlace:59883,,Skråvika,,62.42507,6.402141,,,1,,2,,,700
NSR:StopPlace:37633,,Ræstad,,62.73567,6.841383,,,1,,2,,,700
NSR:StopPlace:38963,,Herje,,62.67103,7.536778,,,1,,2,,,700
NSR:StopPlace:37632,,Valkvæ,,62.48256,6.042486,,,1,,2,,,700
NSR:StopPlace:37630,,Rystene,,62.185635,6.09606,,,1,,2,,,700
NSR:StopPlace:38961,,Henning Verksted,,62.442566,6.208099,,,1,,2,,,700
NSR:StopPlace:38968,,Hersel,,62.368603,8.040896,,,1,,2,,,700
NSR:StopPlace:37637,,Røbekk,,62.751144,7.285934,,,1,,2,,,700
NSR:StopPlace:58556,,Skjeltene ferjekai,,62.592106,6.281162,,,1,,2,,,1000
NSR:StopPlace:38967,,Åsskard,,63.021797,8.492437,,,1,,2,,,700
NSR:StopPlace:58558,,Hollingsholmen ferjekai,,62.77688,6.97323,,,1,,2,,,1000
NSR:StopPlace:37635,,Røabukta,,62.827694,6.821341,,,1,,2,,,700
NSR:StopPlace:38965,,Åsprong,,62.874928,8.344897,,,1,,2,,,700
NSR:StopPlace:38969,,Fjøsneset,,62.038044,5.891481,,,1,,2,,,700
NSR:StopPlace:37638,,Hjelsetbukta,,62.781883,7.49858,,,1,,2,,,700
NSR:StopPlace:37640,,Vallageila kryss,,62.2031,6.13854,,,1,,2,,,700
NSR:StopPlace:38970,,Åsskard kyrkje,,63.019028,8.495962,,,1,,2,,,700
NSR:StopPlace:38975,,Syvde skule,,62.088837,5.739099,,,1,,2,,,700
NSR:StopPlace:37644,,Valldal øvre,,62.321167,7.311517,,,1,,2,,,700
NSR:StopPlace:38974,,Herøy kyrkje,,62.33518,5.635739,,,1,,2,,,700
NSR:StopPlace:37643,,Rødvegen kryss,,62.771355,7.954173,,,1,,2,,,700
NSR:StopPlace:38973,,Fladset,,63.042236,7.534308,,,1,,2,,,700
NSR:StopPlace:37642,,Hjelseth,,62.470432,6.119025,,,1,,2,,,700
NSR:StopPlace:38972,,Syvde kyrkje,,62.090652,5.742756,,,1,,2,,,700
NSR:StopPlace:38979,,Hessa mat,,62.459435,6.152238,,,1,,2,,,700
NSR:StopPlace:37648,,Rød,,62.916374,7.698884,,,1,,2,,,700
NSR:StopPlace:37647,,Hjelvik vest,,62.60938,7.229172,,,1,,2,,,700
NSR:StopPlace:38977,,Syvdsnes,,62.173683,5.676517,,,1,,2,,,700
NSR:StopPlace:38976,,Herøy vgs,,62.334064,5.641662,,,1,,2,,,700
NSR:StopPlace:37645,,Rød,,62.77171,7.960577,,,1,,2,,,700
NSR:StopPlace:37651,,Rødal,,62.96243,7.179241,,,1,,2,,,700
NSR:StopPlace:38981,,Hessa bedehus,,62.458874,6.141088,,,1,,2,,,700
NSR:StopPlace:37650,,Valldal nedre camping,,62.31745,7.294543,,,1,,2,,,700
NSR:StopPlace:38980,,Sæbø ferjekai,,62.21106,6.475861,,,1,,2,,,700
NSR:StopPlace:38986,,Flatmark,,62.429386,7.970875,,,1,,2,,,700
NSR:StopPlace:37655,,Rødalkrysset,,62.836086,7.236284,,,1,,2,,,700
NSR:StopPlace:38985,,Hessaskaret nord,,62.460876,6.133846,,,1,,2,,,700
NSR:StopPlace:37654,,Valldal sentrum,,62.298256,7.263827,,,1,,2,,,700
NSR:StopPlace:38984,,Sæbø,,62.20726,6.476058,,,1,,2,,,700
NSR:StopPlace:37652,,Hjelvik øst,,62.608845,7.238654,,,1,,2,,,700
NSR:StopPlace:38983,,Hessa skole,,62.458946,6.129647,,,1,,2,,,700
NSR:StopPlace:37659,,Stranda Røde Kors,,62.31045,6.935053,,,1,,2,,,700
NSR:StopPlace:37658,,Rødalsvegen,,62.471268,6.331942,,,1,,2,,,700
NSR:StopPlace:38988,,Hessaskaret syd,,62.459805,6.133298,,,1,,2,,,700
NSR:StopPlace:37656,,Hjertvik,,62.785805,6.878474,,,1,,2,,,700
NSR:StopPlace:38987,,Sæbø hurtigbåtkai,,62.209637,6.477132,,,1,,2,,,1000
NSR:StopPlace:38993,,Flatset gård,,63.02865,7.765598,,,1,,2,,,700
NSR:StopPlace:38990,,Hessatun,,62.459084,6.136798,,,1,,2,,,700
NSR:StopPlace:38997,,Hesseberg vest,,62.435688,6.526242,,,1,,2,,,700
NSR:StopPlace:38996,,Flatsetkrysset,,63.030174,7.77176,,,1,,2,,,700
NSR:StopPlace:37665,,Muritunet,,62.29775,7.252845,,,1,,2,,,700
NSR:StopPlace:37664,,Rødhagen,,62.770687,7.944088,,,1,,2,,,700
NSR:StopPlace:38995,,Sæter,,63.078327,8.411201,,,1,,2,,,700
NSR:StopPlace:37669,,Valldal skule,,62.301598,7.260162,,,1,,2,,,700
NSR:StopPlace:37668,,Røsand,,63.06679,7.644371,,,1,,2,,,700
NSR:StopPlace:38999,,Hesseberg aust,,62.4373,6.532756,,,1,,2,,,700
NSR:StopPlace:37667,,Hjertvika,,62.991364,7.378933,,,1,,2,,,700
NSR:StopPlace:38998,,Sæter,,62.849064,6.909062,,,1,,2,,,700
NSR:StopPlace:37673,,Røsandbukta,,63.071754,7.659416,,,1,,2,,,700
NSR:StopPlace:37672,,Megarden,,62.323174,7.317359,,,1,,2,,,700
NSR:StopPlace:37670,,Indre Røsand,,63.068623,7.655232,,,1,,2,,,700
NSR:StopPlace:37677,,Røsandåsen,,63.067272,7.649487,,,1,,2,,,700
NSR:StopPlace:37676,,Valle,,62.479504,6.666833,,,1,,2,,,700
NSR:StopPlace:37675,,Hjertåsen,,63.011574,7.452958,,,1,,2,,,700
NSR:StopPlace:37674,,Røsandeidet,,63.07059,7.645602,,,1,,2,,,700
NSR:StopPlace:37679,,Rødset,,62.472168,6.396826,,,1,,2,,,700
NSR:StopPlace:37678,,Hjorthol,,62.293526,6.672971,,,1,,2,,,700
NSR:StopPlace:38098,,Silnes nyveien,,62.93606,7.435363,,,1,,2,,,700
NSR:StopPlace:38095,,Silnes gammelvei,,62.936222,7.438588,,,1,,2,,,700
NSR:StopPlace:38099,,Vikan,,62.946037,7.018047,,,1,,2,,,700
NSR:StopPlace:35823,,Seljeset kryss,,61.999775,6.635258,,,1,,2,,,700
NSR:StopPlace:35832,,Tomasgard kryss,,61.988686,6.534469,,,1,,2,,,700
NSR:StopPlace:59810,,Trollvika,,62.776783,6.897408,,,1,,2,,,700
NSR:StopPlace:43476,,Dragset,,63.11512,9.608752,,,1,,2,,,700
NSR:StopPlace:43479,,Dragsetmoen,,63.11811,9.611521,,,1,,2,,,700
NSR:StopPlace:43481,,Annøl,,63.30415,9.762619,,,1,,2,,,700
NSR:StopPlace:59830,,Slyngstad aust,,62.54357,6.541172,,,1,,2,,,700
NSR:StopPlace:60825,,Ledalsvollen,,63.410824,8.726731,,,1,,2,,,700
NSR:StopPlace:58507,,Rykkjem ferjekai,,62.878696,8.486003,,,1,,2,,,700
NSR:StopPlace:60824,,Ledalsvegen,,63.406807,8.728447,,,1,,2,,,700
NSR:StopPlace:6625,,Flisnes barnehage,,62.42833,6.410849,,,1,,2,,,700
NSR:StopPlace:59821,,Klettkrysset,,63.32288,10.302507,,,1,,2,,,700
NSR:StopPlace:38902,,Fjellseterskiftet,,62.31946,6.750763,,,1,,2,,,700
NSR:StopPlace:38901,,Årvika ferjekai,,62.19143,5.633911,,,1,,2,,,700
NSR:StopPlace:38906,,Fjellstova,,62.519848,6.916978,,,1,,2,,,700
NSR:StopPlace:38905,,Hellesylt,,62.085564,6.869793,,,1,,2,,,700
NSR:StopPlace:38904,,Årvåg,,63.34918,8.850106,,,1,,2,,,700
NSR:StopPlace:38903,,Helleskjerva Jarnes skule,,62.380703,6.552955,,,1,,2,,,700
NSR:StopPlace:38908,,Hellesylt ferjekai,,62.08741,6.8703,,,1,,2,,,1000
NSR:StopPlace:38907,,Årø,,62.7487,7.265972,,,1,,2,,,700
NSR:StopPlace:38913,,Helsem,,62.2935,6.955549,,,1,,2,,,700
NSR:StopPlace:38912,,Årøkrysset,,62.74774,7.257199,,,1,,2,,,700
NSR:StopPlace:38911,,Helgesvingen,,62.08796,6.866619,,,1,,2,,,700
NSR:StopPlace:38910,,Årøhagen,,62.74642,7.25143,,,1,,2,,,700
NSR:StopPlace:58526,,Kanestraum ferjekai,,63.053013,8.12461,,,1,,2,,,700
NSR:StopPlace:38916,,Årølia,,62.75547,7.291422,,,1,,2,,,700
NSR:StopPlace:38914,,Fjelltun,,62.474815,6.189365,,,1,,2,,,700
NSR:StopPlace:38919,,Årølivegen/Jordbærvegen,,62.754524,7.270675,,,1,,2,,,700
NSR:StopPlace:38918,,Fjordvegen,,62.410618,6.555479,,,1,,2,,,700
NSR:StopPlace:42189,,Skarsem,,62.608994,9.614526,,,1,,2,,,700
NSR:StopPlace:42185,,Groegga,Oppøyen,63.1595,9.677098,,,1,,2,,,700
NSR:StopPlace:58513,,Harøya kai,,62.72592,6.457148,,,1,,2,,,1000
NSR:StopPlace:58514,,Harøya kai,,62.72646,6.458565,,,1,,2,,,700
NSR:StopPlace:38922,,Nedre Helset,,62.595345,7.135653,,,1,,2,,,700
NSR:StopPlace:38921,,Årølivegen/Kvilarvegen,,62.754814,7.280142,,,1,,2,,,700
NSR:StopPlace:38927,,Øvre Helset,,62.590736,7.138044,,,1,,2,,,700
NSR:StopPlace:38926,,Åsbygda,,62.63059,7.058238,,,1,,2,,,700
NSR:StopPlace:58519,,Lauvstad ferjekai,,62.164597,5.94263,,,1,,2,,,700
NSR:StopPlace:38925,,Helset,,62.78837,7.032994,,,1,,2,,,700
NSR:StopPlace:38929,,Storberget,,62.598793,7.133546,,,1,,2,,,700
NSR:StopPlace:39342,,Lillebø,,62.069927,5.622688,,,1,,2,,,700
NSR:StopPlace:38010,,Eide kryss,,63.00023,7.287515,,,1,,2,,,700
NSR:StopPlace:39343,,Frodebanen,,62.89834,7.415116,,,1,,2,,,700
NSR:StopPlace:39344,,Lilleeide,,62.10564,5.6435,,,1,,2,,,700
NSR:StopPlace:39345,,Torvik Ulvestad,,62.169556,5.931024,,,1,,2,,,700
NSR:StopPlace:38014,,Hundsnes ytre,,62.101887,5.45815,,,1,,2,,,700
NSR:StopPlace:38013,,Vevang nord,,63.008327,7.30384,,,1,,2,,,700
NSR:StopPlace:39340,,Lillebotn,,62.055866,6.083455,,,1,,2,,,700
NSR:StopPlace:61273,,Vikebukt,,62.614773,7.147512,,,1,,2,,,700
NSR:StopPlace:38011,,Hundsnes indre,,62.10175,5.470717,,,1,,2,,,700
NSR:StopPlace:39341,,Torvik,,62.17396,5.929682,,,1,,2,,,700
NSR:StopPlace:38017,,Hunnes,,62.090397,6.228739,,,1,,2,,,700
NSR:StopPlace:39346,,Demlå,,62.574993,6.9104,,,1,,2,,,700
NSR:StopPlace:39347,,Lilleholten,,63.064663,7.997229,,,1,,2,,,700
NSR:StopPlace:39348,,Torvik,,62.04315,5.528151,,,1,,2,,,700
NSR:StopPlace:39349,,Lillerovde,,62.180473,5.774677,,,1,,2,,,700
NSR:StopPlace:38019,,Veøy kirke,,62.68689,7.45636,,,1,,2,,,700
NSR:StopPlace:40338,,Melset,,62.413383,6.782995,,,1,,2,,,700
NSR:StopPlace:40335,,Almvik,,62.91942,8.167002,,,1,,2,,,700
NSR:StopPlace:38021,,Seljeset,,62.223625,5.710072,,,1,,2,,,700
NSR:StopPlace:40342,,Alnes bedehus,,62.484722,5.979967,,,1,,2,,,700
NSR:StopPlace:40343,,Grimstad,,63.051376,8.023953,,,1,,2,,,700
NSR:StopPlace:38020,,Hurla,,62.598335,6.307873,,,1,,2,,,700
NSR:StopPlace:39354,,Hegreneset,,62.57959,6.913527,,,1,,2,,,700
NSR:StopPlace:39356,,Torvik midtre,,62.339806,5.728547,,,1,,2,,,700
NSR:StopPlace:40341,,Mevold,,62.76235,6.999338,,,1,,2,,,700
NSR:StopPlace:38025,,Seljevoll,,62.617832,7.54316,,,1,,2,,,700
NSR:StopPlace:61264,,Skutvika,,62.470673,6.136942,,,1,,2,,,700
NSR:StopPlace:39350,,Rolf verftet,,62.574825,6.915836,,,1,,2,,,700
NSR:StopPlace:39351,,Torvika,,62.566982,7.58992,,,1,,2,,,700
NSR:StopPlace:61262,,Torghallen,,62.470646,6.150292,,,1,,2,,,700
NSR:StopPlace:39352,,Torvik indre,,62.3339,5.720514,,,1,,2,,,700
NSR:StopPlace:61263,,Aspegata,,62.470016,6.144694,,,1,,2,,,700
NSR:StopPlace:38028,,Sellanrå skole,,62.73954,7.142378,,,1,,2,,,700
NSR:StopPlace:38027,,Vidnes,,62.059734,5.620996,,,1,,2,,,700
NSR:StopPlace:38026,,Husbykrysset,,63.25772,8.369578,,,1,,2,,,700
NSR:StopPlace:39357,,Lillevik,,62.97945,7.30483,,,1,,2,,,700
NSR:StopPlace:39359,,Torvik terminal,,62.337276,5.725711,,,1,,2,,,700
NSR:StopPlace:40348,,Midsund Servicesenter,,62.673996,6.67552,,,1,,2,,,700
NSR:StopPlace:40349,,Grimstad vest,,62.36475,5.990663,,,1,,2,,,700
NSR:StopPlace:40346,,Midsund Montessoriskule,,62.662155,6.598166,,,1,,2,,,700
NSR:StopPlace:40347,,Alnesreset,,62.431614,7.656476,,,1,,2,,,700
NSR:StopPlace:40344,,Midsund,,62.67396,6.673853,,,1,,2,,,700
NSR:StopPlace:40345,,Alnes skule,,62.487,5.972915,,,1,,2,,,700
NSR:StopPlace:41676,,Torshus,,63.257442,9.779842,,,1,,2,,,700
NSR:StopPlace:39364,,Lillås,,62.250587,7.197455,,,1,,2,,,700
NSR:StopPlace:38032,,Huse,,62.772224,6.45827,,,1,,2,,,700
NSR:StopPlace:40353,,Midsundbrua øst,,62.67291,6.668632,,,1,,2,,,700
NSR:StopPlace:40354,,Grimstad aust,,62.366913,6.001673,,,1,,2,,,700
NSR:StopPlace:38031,,Selneset,,62.606728,6.935602,,,1,,2,,,700
NSR:StopPlace:39366,,Frydenlund vest,,62.55544,7.687369,,,1,,2,,,700
NSR:StopPlace:38030,,Vigra Helsetun,,62.562874,6.075713,,,1,,2,,,700
NSR:StopPlace:40351,,Midsund skule,,62.682217,6.671993,,,1,,2,,,700
NSR:StopPlace:39367,,Lindås,,63.199062,8.561453,,,1,,2,,,700
NSR:StopPlace:40352,,Alvestad Pegarden,,62.604424,6.376593,,,1,,2,,,700
NSR:StopPlace:39360,,Lillevika,,62.4612,6.139994,,,1,,2,,,700
NSR:StopPlace:38036,,Semundset,,63.226257,8.411715,,,1,,2,,,700
NSR:StopPlace:39361,,Frydenlund,,62.553516,7.697513,,,1,,2,,,700
NSR:StopPlace:38035,,Vigra skule,,62.57282,6.114625,,,1,,2,,,700
NSR:StopPlace:40350,,Alvestad Raffelgarden,,62.60365,6.38818,,,1,,2,,,700
NSR:StopPlace:39362,,Torvik ytre,,62.343082,5.731939,,,1,,2,,,700
NSR:StopPlace:38034,,Selvåg,,62.2537,5.86065,,,1,,2,,,700
NSR:StopPlace:38033,,Vigra kyrkje,,62.56394,6.077945,,,1,,2,,,700
NSR:StopPlace:38039,,Hustad fengsel,,62.966553,7.141643,,,1,,2,,,700
NSR:StopPlace:38037,,Hustad,,62.954082,7.095237,,,1,,2,,,700
NSR:StopPlace:39368,,Torvikbukt,,62.943638,7.857103,,,1,,2,,,700
NSR:StopPlace:39369,,Linge,,62.289906,7.226806,,,1,,2,,,700
NSR:StopPlace:39370,,Torvikdalen,,62.910156,7.892884,,,1,,2,,,700
NSR:StopPlace:40357,,Amdam,,62.462337,6.837191,,,1,,2,,,700
NSR:StopPlace:40358,,Mikkelhaugen,,62.330975,5.63564,,,1,,2,,,700
NSR:StopPlace:40355,,Midtre Skjong,,62.500237,6.110719,,,1,,2,,,700
NSR:StopPlace:40356,,Alvika,,62.485245,6.404655,,,1,,2,,,700
NSR:StopPlace:38043,,Hustadmarmor,,62.85174,7.118754,,,1,,2,,,700
NSR:StopPlace:40364,,Amundøy,,63.060047,7.708027,,,1,,2,,,700
NSR:StopPlace:39376,,Fræna kommunehus,,62.85336,7.153746,,,1,,2,,,700
NSR:StopPlace:38042,,Vihals,,63.347103,8.68613,,,1,,2,,,700
NSR:StopPlace:38041,,Seterhaugan,,62.814415,7.125138,,,1,,2,,,700
NSR:StopPlace:39377,,Torvteigen,,62.477345,6.247366,,,1,,2,,,700
NSR:StopPlace:38040,,Vigrastova,,62.565193,6.081724,,,1,,2,,,700
NSR:StopPlace:39378,,Linvågen,,63.179794,7.949374,,,1,,2,,,700
NSR:StopPlace:38046,,Vik,,62.493694,6.32876,,,1,,2,,,700
NSR:StopPlace:39372,,Linge ferjekai,,62.284454,7.187632,,,1,,2,,,700
NSR:StopPlace:38045,,Hustad skole,,62.96058,7.115704,,,1,,2,,,700
NSR:StopPlace:39373,,Torvplassen,,63.120953,7.78808,,,1,,2,,,700
NSR:StopPlace:38044,,Seterhaugan 1,,62.815006,7.129888,,,1,,2,,,700
NSR:StopPlace:39374,,Linge ytre,,62.286934,7.211703,,,1,,2,,,700
NSR:StopPlace:38049,,Setervika,,63.02436,8.470746,,,1,,2,,,700
NSR:StopPlace:38048,,Vik,,62.609875,6.940792,,,1,,2,,,700
NSR:StopPlace:39379,,Toven,,62.793003,8.123521,,,1,,2,,,700
NSR:StopPlace:40368,,Brattøybrua,,63.061897,7.702821,,,1,,2,,,700
NSR:StopPlace:40369,,Mittet,,62.701157,7.698656,,,1,,2,,,700
NSR:StopPlace:40366,,Amundøy snuplass,,63.059982,7.704647,,,1,,2,,,700
NSR:StopPlace:40375,,Grindvik,,62.504448,6.654977,,,1,,2,,,700
NSR:StopPlace:38054,,Husøykrysset,,63.085365,7.769967,,,1,,2,,,700
NSR:StopPlace:38053,,Vik syd,,62.37697,6.576363,,,1,,2,,,700
NSR:StopPlace:39387,,Frænavegen Bolsøyvegen,,62.741646,7.190646,,,1,,2,,,700
NSR:StopPlace:40376,,Angvik,,62.890057,8.080892,,,1,,2,,,700
NSR:StopPlace:40373,,Andestad,,62.411236,6.64844,,,1,,2,,,700
NSR:StopPlace:38052,,Seth,,62.6321,6.180986,,,1,,2,,,700
NSR:StopPlace:40374,,Devold,,62.539516,7.724826,,,1,,2,,,700
NSR:StopPlace:38051,,Vik,,63.208294,8.602355,,,1,,2,,,700
NSR:StopPlace:39382,,Molde trafikkterminal,,62.737244,7.161466,,,1,,2,,,700
NSR:StopPlace:40372,,Mittetstranda,,62.697197,7.666701,,,1,,2,,,700
NSR:StopPlace:38057,,Hv,,62.74065,7.179324,,,1,,2,,,700
NSR:StopPlace:38056,,Vik nord,,62.37834,6.576639,,,1,,2,,,700
NSR:StopPlace:38055,,Setnes,,62.555416,7.680468,,,1,,2,,,700
NSR:StopPlace:40370,,Grinda,,62.892677,8.554299,,,1,,2,,,700
NSR:StopPlace:38059,,Vik gamlevegen,,62.496113,6.320008,,,1,,2,,,700
NSR:StopPlace:39392,,Frænavegen Moldelivegen,,62.740345,7.173333,,,1,,2,,,700
NSR:StopPlace:40379,,Mjosundet,,63.22963,8.502646,,,1,,2,,,700
NSR:StopPlace:38060,,Hvite murbyen,,62.75514,7.238397,,,1,,2,,,700
NSR:StopPlace:40377,,Mjelva,,62.543198,7.72325,,,1,,2,,,700
NSR:StopPlace:40378,,Angvik skule,,62.89715,8.088402,,,1,,2,,,700
NSR:StopPlace:39397,,Frænavegen Bergsbakken,,62.747017,7.216542,,,1,,2,,,700
NSR:StopPlace:40386,,Arasvika ferjekai,,63.1654,8.43528,,,1,,2,,,1000
NSR:StopPlace:40387,,Silnesmyra nyveien,,62.9436,7.422868,,,1,,2,,,700
NSR:StopPlace:38064,,Vik skole,,62.494705,6.327184,,,1,,2,,,700
NSR:StopPlace:38063,,Djupdalen,,62.44068,6.194841,,,1,,2,,,700
NSR:StopPlace:40384,,Apotekertorget,,62.4712,6.151126,,,1,,2,,,700
NSR:StopPlace:38062,,Vik øst,,62.06842,5.558325,,,1,,2,,,700
NSR:StopPlace:40385,,Mo,,62.195156,6.142424,,,1,,2,,,700
NSR:StopPlace:40382,,Mjosundet bru,,63.250797,8.486988,,,1,,2,,,700
NSR:StopPlace:38069,,Vika,,62.955124,8.118012,,,1,,2,,,700
NSR:StopPlace:39393,,Trandal ferjekai,,62.2609,6.500594,,,1,,2,,,1000
NSR:StopPlace:40383,,Mjølvågen,,62.998646,7.399658,,,1,,2,,,700
NSR:StopPlace:38067,,Setra,,63.0815,7.588469,,,1,,2,,,700
NSR:StopPlace:40380,,Abelset,,62.477283,6.748576,,,1,,2,,,700
NSR:StopPlace:39395,,Trandal hurtigbåtkai,,62.26093,6.500368,,,1,,2,,,1000
NSR:StopPlace:38066,,Vik vest,,62.073193,5.546185,,,1,,2,,,700
NSR:StopPlace:38071,,Høgda,,63.392635,7.821929,,,1,,2,,,700
NSR:StopPlace:38070,,Setra,,63.327793,8.652142,,,1,,2,,,700
NSR:StopPlace:40388,,Arasvika ferjekai,,63.165615,8.435577,,,1,,2,,,700
NSR:StopPlace:40389,,Mo,,62.369564,7.083287,,,1,,2,,,700
NSR:StopPlace:40397,,Arset,,62.18037,5.529768,,,1,,2,,,700
NSR:StopPlace:38076,,Vika,,62.29388,7.2899,,,1,,2,,,700
NSR:StopPlace:38075,,Settemsdal,,63.03809,8.43778,,,1,,2,,,700
NSR:StopPlace:38074,,Høgebøane kryss Nakkegata,,62.37836,6.587121,,,1,,2,,,700
NSR:StopPlace:38073,,Vika,,62.568466,7.632442,,,1,,2,,,700
NSR:StopPlace:40393,,Arnvika,,63.01151,7.976438,,,1,,2,,,700
NSR:StopPlace:40394,,Silnesmyra gammelvei,,62.94581,7.423976,,,1,,2,,,700
NSR:StopPlace:38079,,Vikamyra,,63.04368,7.526563,,,1,,2,,,700
NSR:StopPlace:40392,,Mo fremre,,62.18931,6.148869,,,1,,2,,,700
NSR:StopPlace:38077,,Høgebrua fv. 55,,62.184387,6.195706,,,1,,2,,,700
NSR:StopPlace:40390,,Vågosen,,63.166584,8.439135,,,1,,2,,,700
NSR:StopPlace:35803,,Brendefur,,61.99845,6.626727,,,1,,2,,,700
NSR:StopPlace:35808,,Indre Haugen,,62.00056,6.6392,,,1,,2,,,700
NSR:StopPlace:35805,,Brendefur aust,,61.999348,6.63257,,,1,,2,,,700
NSR:StopPlace:38083,,Høgebrua,,62.183975,6.197684,,,1,,2,,,700
NSR:StopPlace:40399,,Silset,,62.879414,7.65191,,,1,,2,,,700
NSR:StopPlace:38086,,Siem,,62.58049,7.558382,,,1,,2,,,700
NSR:StopPlace:38084,,Vikan,,63.38008,8.189759,,,1,,2,,,700
NSR:StopPlace:38089,,Ytre Siem,,62.57962,7.550285,,,1,,2,,,700
NSR:StopPlace:38088,,Angvikkrysset,,62.820457,7.760564,,,1,,2,,,700
NSR:StopPlace:35810,,Raftevoll,,62.00239,6.649411,,,1,,2,,,700
NSR:StopPlace:35814,,Indre Haugen aust,,62.001575,6.642846,,,1,,2,,,700
NSR:StopPlace:35815,,Honndøla bru,,62.018806,6.682414,,,1,,2,,,700
NSR:StopPlace:35819,,Støverstein vest,,62.024124,6.710111,,,1,,2,,,700
NSR:StopPlace:38094,,Høgset,,62.661167,6.656766,,,1,,2,,,700
NSR:StopPlace:38093,,Haugaskaret,,63.059708,8.423802,,,1,,2,,,700
NSR:StopPlace:38092,,Sigerset,,62.76753,7.4213,,,1,,2,,,700
NSR:StopPlace:38091,,Høgnakken,,62.75082,7.189315,,,1,,2,,,700
NSR:StopPlace:38894,,Hellesfjorden,,63.364704,8.180357,,,1,,2,,,700
NSR:StopPlace:37563,,Hjellane Heggheim,,62.248104,7.156627,,,1,,2,,,700
NSR:StopPlace:37562,,Romundset,,63.33069,8.673054,,,1,,2,,,700
NSR:StopPlace:38898,,Helleskjerva Granåsen,,62.380035,6.54151,,,1,,2,,,700
NSR:StopPlace:37567,,Hjellane Veiberg,,62.238216,7.151899,,,1,,2,,,700
NSR:StopPlace:37566,,Roppen,,62.3959,5.847537,,,1,,2,,,700
NSR:StopPlace:37565,,Vad bru,,62.368282,7.08653,,,1,,2,,,700
NSR:StopPlace:37569,,Roseby nord,,62.73945,7.178772,,,1,,2,,,700
NSR:StopPlace:37568,,Vadset,,62.534725,6.608751,,,1,,2,,,700
NSR:StopPlace:37570,,Roseby sør,,62.73868,7.17829,,,1,,2,,,700
NSR:StopPlace:37574,,Rosvoll,,63.30891,8.018834,,,1,,2,,,700
NSR:StopPlace:37573,,Vadset,,62.53598,6.616532,,,1,,2,,,700
NSR:StopPlace:37572,,Roseby øst,,62.73904,7.182902,,,1,,2,,,700
NSR:StopPlace:37571,,Hjellane Øyane,,62.245197,7.156515,,,1,,2,,,700
NSR:StopPlace:37578,,Roth,,62.512264,6.445742,,,1,,2,,,700
NSR:StopPlace:37577,,Rot,,62.34323,6.211325,,,1,,2,,,700
NSR:StopPlace:37576,,Vadsteinsvik,,63.076447,7.719852,,,1,,2,,,700
NSR:StopPlace:37579,,Vadsteinsvikkrysset rv. 70,,63.074802,7.771251,,,1,,2,,,700
NSR:StopPlace:37581,,Roth,,62.169346,5.708193,,,1,,2,,,700
NSR:StopPlace:37580,,Hjellbakkane,,62.061855,6.368449,,,1,,2,,,700
NSR:StopPlace:37583,,Vadsteinsvikkrysset,,63.07768,7.774584,,,1,,2,,,700
NSR:StopPlace:37582,,Rotnes,,62.349766,6.218381,,,1,,2,,,700
NSR:StopPlace:37591,,Vaksvik,,62.452217,6.899169,,,1,,2,,,700
NSR:StopPlace:37590,,Hjellebakkane,,62.149803,6.11629,,,1,,2,,,700
NSR:StopPlace:37595,,Valderhaugstrand,,62.496937,6.127045,,,1,,2,,,700
NSR:StopPlace:37594,,Hjellegjerde,,62.404022,6.571589,,,1,,2,,,700
NSR:StopPlace:37593,,Rovde,,62.17321,5.735389,,,1,,2,,,700
NSR:StopPlace:37599,,Valderøy barneskole,,62.505035,6.130741,,,1,,2,,,700
NSR:StopPlace:37598,,Vaksvik Hjelleskaret,,62.450043,6.901513,,,1,,2,,,700
NSR:StopPlace:37597,,Rundebrua Runde,,62.388374,5.633971,,,1,,2,,,700
NSR:StopPlace:41617,,St. Olavs Hospital øst,ved Kvinne-Barn-Senteret,63.420662,10.390359,,,1,,2,,,700
NSR:StopPlace:42947,,Søvassli Ungdomssenter,,63.230606,9.43006,,,1,,2,,,700
NSR:StopPlace:39300,,Tore Lillebostads veg,,62.730232,7.302898,,,1,,2,,,700
NSR:StopPlace:39306,,Lid,,62.15365,5.659039,,,1,,2,,,700
NSR:StopPlace:39307,,Frei ungdomsskole,,63.09927,7.853591,,,1,,2,,,700
NSR:StopPlace:39308,,Torget,,62.44205,6.189603,,,1,,2,,,700
NSR:StopPlace:39302,,Frei skole,,63.037983,7.784233,,,1,,2,,,700
NSR:StopPlace:39311,,Freiveien,,63.121983,7.728505,,,1,,2,,,700
NSR:StopPlace:39318,,Torneskleiva,,62.840145,7.056301,,,1,,2,,,700
NSR:StopPlace:39315,,Tornes,,62.840282,7.0392,,,1,,2,,,700
NSR:StopPlace:40308,,Alexandraparken,,62.735023,7.15553,,,1,,2,,,700
NSR:StopPlace:40309,,Kvisvik,,63.065857,7.991741,,,1,,2,,,700
NSR:StopPlace:40306,,Gresset,,63.253532,8.557839,,,1,,2,,,700
NSR:StopPlace:40307,,Kvistnes,,63.043327,7.489699,,,1,,2,,,700
NSR:StopPlace:40304,,Kvistad Frøland,,62.193314,6.412287,,,1,,2,,,700
NSR:StopPlace:40302,,Kvistad,,62.194702,6.417224,,,1,,2,,,700
NSR:StopPlace:40300,,Aksnes,,62.077305,5.912896,,,1,,2,,,700
NSR:StopPlace:61226,,Litleåsen,,62.84131,7.24279,,,1,,2,,,700
NSR:StopPlace:39321,,Tornes skule,,62.842796,7.030099,,,1,,2,,,700
NSR:StopPlace:39322,,Lied,,62.30896,7.075851,,,1,,2,,,700
NSR:StopPlace:39323,,Lied ytre,,62.31171,7.056438,,,1,,2,,,700
NSR:StopPlace:39328,,Torsetsund bru,,63.3186,8.60301,,,1,,2,,,700
NSR:StopPlace:39329,,Frikirka,,62.44315,6.22528,,,1,,2,,,700
NSR:StopPlace:39324,,Torset,,63.319317,8.609847,,,1,,2,,,700
NSR:StopPlace:39325,,Fridtjof Nansens gate,,62.741547,7.162649,,,1,,2,,,700
NSR:StopPlace:39326,,Lillbråten,,62.76824,8.532241,,,1,,2,,,700
NSR:StopPlace:39327,,Torsetneset,,63.24877,8.562731,,,1,,2,,,700
NSR:StopPlace:40319,,Melkild øst,,62.752335,8.384503,,,1,,2,,,700
NSR:StopPlace:40318,,Grevsnes,,62.1185,6.097693,,,1,,2,,,700
NSR:StopPlace:40315,,Melbø,,62.579758,7.850913,,,1,,2,,,700
NSR:StopPlace:40316,,Melhuskrysset,,62.90322,8.59752,,,1,,2,,,700
NSR:StopPlace:40313,,Greves plass,,63.113213,7.726562,,,1,,2,,,700
NSR:StopPlace:40314,,Algeaveien,,63.109055,7.768817,,,1,,2,,,700
NSR:StopPlace:40320,,Alme ytre,,62.315453,6.026372,,,1,,2,,,700
NSR:StopPlace:39331,,Lille Mork,,62.97244,7.412198,,,1,,2,,,700
NSR:StopPlace:40321,,Melkild,,62.754124,8.376458,,,1,,2,,,700
NSR:StopPlace:39333,,Frisvoll,,62.584,7.502081,,,1,,2,,,700
NSR:StopPlace:38002,,Hundeidvik ferjekai Sørestrand,,62.371086,6.426909,,,1,,2,,,700
NSR:StopPlace:38001,,Vestrefjord,,62.599613,6.676828,,,1,,2,,,700
NSR:StopPlace:38000,,Hundeidvik butikk,,62.375156,6.426879,,,1,,2,,,700
NSR:StopPlace:39330,,Lille fale,,62.622883,8.889157,,,1,,2,,,700
NSR:StopPlace:38005,,Hundeidvik privatskule,,62.376453,6.433228,,,1,,2,,,700
NSR:StopPlace:38004,,Vevang,,63.00396,7.294214,,,1,,2,,,700
NSR:StopPlace:39335,,Lille Rånes,,62.948654,7.504044,,,1,,2,,,700
NSR:StopPlace:39336,,Lillebostadhaugen,,62.73078,7.317747,,,1,,2,,,700
NSR:StopPlace:38008,,Utgård,,62.373672,6.42748,,,1,,2,,,700
NSR:StopPlace:39338,,Torvhaugan,,63.121887,7.794097,,,1,,2,,,700
NSR:StopPlace:40329,,Melkvikan rv. 70,,63.113018,7.766803,,,1,,2,,,700
NSR:StopPlace:40326,,Melkvikan,i Dalegata,63.11437,7.765627,,,1,,2,,,700
NSR:StopPlace:40322,,Almestad aust,,62.214424,5.680387,,,1,,2,,,700
NSR:StopPlace:40323,,Almestad vest,,62.21518,5.66739,,,1,,2,,,700
NSR:StopPlace:38810,,Åmbakk,,62.166714,6.222566,,,1,,2,,,700
NSR:StopPlace:59751,,Sandnes,,62.882492,8.359361,,,1,,2,,,700
NSR:StopPlace:35784,,Kroken,,61.996983,6.573087,,,1,,2,,,700
NSR:StopPlace:42072,,Vasslia,,63.222992,9.246529,,,1,,2,,,700
NSR:StopPlace:59753,,Malmestranda,,62.80264,7.189168,,,1,,2,,,700
NSR:StopPlace:59754,,Gravem,,62.55465,9.087724,,,1,,2,,,700
NSR:StopPlace:38814,,Åmbø,,62.179195,6.19929,,,1,,2,,,700
NSR:StopPlace:38813,,Fiksdalstranda sør,,62.600224,6.89545,,,1,,2,,,700
NSR:StopPlace:35789,,Espe,,61.99749,6.58314,,,1,,2,,,700
NSR:StopPlace:38812,,Havgapet,,63.125782,7.706951,,,1,,2,,,700
NSR:StopPlace:35787,,Espeli møbelfabrikk,,61.997578,6.580994,,,1,,2,,,700
NSR:StopPlace:38818,,Havåg,,62.253067,5.874839,,,1,,2,,,700
NSR:StopPlace:38816,,Åmelfot,,62.009033,5.844555,,,1,,2,,,700
NSR:StopPlace:38819,,Åmot,,63.02216,9.088977,,,1,,2,,,700
NSR:StopPlace:60741,,Lillekollen,,62.737614,7.130299,,,1,,2,,,700
NSR:StopPlace:35792,,Espe aust,,61.99747,6.589187,,,1,,2,,,700
NSR:StopPlace:38820,,Åmås,,62.180927,6.196478,,,1,,2,,,700
NSR:StopPlace:35794,,Rygg,,61.997807,6.596361,,,1,,2,,,700
NSR:StopPlace:38825,,Heggem,,62.867558,7.881865,,,1,,2,,,700
NSR:StopPlace:35799,,Solheim,,61.998154,6.617105,,,1,,2,,,700
NSR:StopPlace:38824,,Furset,,62.85315,7.601099,,,1,,2,,,700
NSR:StopPlace:38823,,Heggebakk,,62.45192,6.583729,,,1,,2,,,700
NSR:StopPlace:35797,,Bakke,,61.998653,6.609512,,,1,,2,,,700
NSR:StopPlace:38829,,Finnøy,,62.796238,6.492039,,,1,,2,,,700
NSR:StopPlace:38828,,Heggem allaktivitetshus,,62.868546,7.88444,,,1,,2,,,700
NSR:StopPlace:59749,,Flemma kirkegård,,62.931995,8.081431,,,1,,2,,,700
NSR:StopPlace:38827,,Åndal,,62.78491,7.053368,,,1,,2,,,700
NSR:StopPlace:38832,,Åndalsnes stasjon,,62.56765,7.689528,,,1,,2,,,700
NSR:StopPlace:37501,,Roaldset Øverbygda,,62.799656,7.549323,,,1,,2,,,700
NSR:StopPlace:37500,,Uran,,63.059654,7.464417,,,1,,2,,,700
NSR:StopPlace:37505,,Rodal,,63.172955,8.640673,,,1,,2,,,700
NSR:StopPlace:38836,,Heggen,,62.330997,7.386572,,,1,,2,,,700
NSR:StopPlace:37504,,Uravegen,,62.150665,6.103824,,,1,,2,,,700
NSR:StopPlace:38835,,Åndalsnes ungdomsskole,,62.563763,7.685091,,,1,,2,,,700
NSR:StopPlace:37503,,Roaldset E39,,62.8017,7.566033,,,1,,2,,,700
NSR:StopPlace:37502,,Hestøya,,63.306057,8.09072,,,1,,2,,,700
NSR:StopPlace:38833,,Finnøya ferjekai,,62.804016,6.5089,,,1,,2,,,700
NSR:StopPlace:37509,,Rogen,,63.052357,7.500448,,,1,,2,,,700
NSR:StopPlace:37508,,Urdalen,,62.44033,6.362438,,,1,,2,,,700
NSR:StopPlace:37507,,Hide,,62.27681,5.552173,,,1,,2,,,700
NSR:StopPlace:38838,,Heggen Hjelme,,62.33042,7.358194,,,1,,2,,,700
NSR:StopPlace:38843,,Åneskrysset,,63.08595,7.88285,,,1,,2,,,700
NSR:StopPlace:38842,,Fiskarstrand,,62.44149,6.268549,,,1,,2,,,700
NSR:StopPlace:37511,,Hildre byggefelt Indre Hildre,,62.60703,6.349745,,,1,,2,,,700
NSR:StopPlace:38841,,Heggeset,,62.975803,7.637683,,,1,,2,,,700
NSR:StopPlace:37510,,Rognan,,63.381195,8.641253,,,1,,2,,,700
NSR:StopPlace:38840,,Åneskrysset,,63.264355,8.441695,,,1,,2,,,700
NSR:StopPlace:38847,,Fiskarstrand skule,,62.439472,6.273918,,,1,,2,,,700
NSR:StopPlace:37516,,Hildre byggefelt Gunnargarden,,62.605247,6.322235,,,1,,2,,,700
NSR:StopPlace:38845,,Heggjadalen kryss,,62.203365,6.134754,,,1,,2,,,700
NSR:StopPlace:37514,,Rogne,,62.66321,6.322371,,,1,,2,,,700
NSR:StopPlace:37513,,Rogne,,62.655586,6.327638,,,1,,2,,,700
NSR:StopPlace:38849,,Åram,,62.191685,5.507342,,,1,,2,,,700
NSR:StopPlace:37518,,Rognskog,,63.084,8.406901,,,1,,2,,,700
NSR:StopPlace:38848,,Heggset,,62.98775,8.7128,,,1,,2,,,700
NSR:StopPlace:37517,,Uri,,62.312996,7.290665,,,1,,2,,,700
NSR:StopPlace:60756,,Mosmarka Mostuna,,62.199417,6.155096,,,1,,2,,,700
NSR:StopPlace:38854,,Åram ferjekai,,62.198326,5.495019,,,1,,2,,,700
NSR:StopPlace:37523,,Hildre byggefelt vest,,62.60279,6.330146,,,1,,2,,,700
NSR:StopPlace:37522,,Rognvika,,63.072727,7.625634,,,1,,2,,,700
NSR:StopPlace:38853,,Heinsagata,,63.104946,7.730785,,,1,,2,,,700
NSR:StopPlace:38852,,Åram,,62.785236,8.512597,,,1,,2,,,700
NSR:StopPlace:37521,,Hildre byggefelt aust,,62.602955,6.345216,,,1,,2,,,700
NSR:StopPlace:37520,,Uri Ødegård,,62.313633,7.276824,,,1,,2,,,700
NSR:StopPlace:59798,,Kjersemhaugvegen,,62.50315,7.129508,,,1,,2,,,700
NSR:StopPlace:59799,,Ramsøya,,63.07722,7.515416,,,1,,2,,,700
NSR:StopPlace:38858,,Helland gamle skule,,62.6014,6.470405,,,1,,2,,,700
NSR:StopPlace:37527,,Hildre kyrkje,,62.61111,6.33628,,,1,,2,,,700
NSR:StopPlace:37526,,Rokset,,62.980087,7.657493,,,1,,2,,,700
NSR:StopPlace:37525,,Urke,,62.21255,6.56615,,,1,,2,,,700
NSR:StopPlace:38855,,Fiskå,,62.100136,5.556195,,,1,,2,,,700
NSR:StopPlace:37524,,Rokilde,,63.11253,7.716539,,,1,,2,,,700
NSR:StopPlace:37529,,Lyshaugveien,,62.982246,7.668201,,,1,,2,,,700
NSR:StopPlace:37528,,Usma bru,,62.717167,8.421976,,,1,,2,,,700
NSR:StopPlace:38865,,Fiskå skule,,62.100815,5.566521,,,1,,2,,,700
NSR:StopPlace:37534,,Utheim boligfelt,,63.006382,7.423646,,,1,,2,,,700
NSR:StopPlace:38864,,Helland skule,,62.615295,7.093613,,,1,,2,,,700
NSR:StopPlace:37533,,Roksetkaia,,62.98364,7.674425,,,1,,2,,,700
NSR:StopPlace:59785,,Stordal rådhus,,62.382015,6.987509,,,1,,2,,,700
NSR:StopPlace:37532,,Hildre skule,,62.604332,6.352724,,,1,,2,,,700
NSR:StopPlace:38863,,Vestrefjord skule,,62.60907,6.668068,,,1,,2,,,700
NSR:StopPlace:37538,,Utheim skole,,63.011665,7.438981,,,1,,2,,,700
NSR:StopPlace:38869,,Hellandskrysset,,62.56041,6.462591,,,1,,2,,,700
NSR:StopPlace:59788,,Mauren,,62.514652,6.47237,,,1,,2,,,700
NSR:StopPlace:38867,,Hellandbakken,,62.471165,6.202652,,,1,,2,,,700
NSR:StopPlace:37536,,Rokstad,,63.41448,8.150084,,,1,,2,,,700
NSR:StopPlace:38866,,Kroken,,62.995476,7.291989,,,1,,2,,,700
NSR:StopPlace:37535,,Hinnåa,,63.357452,7.940757,,,1,,2,,,700
NSR:StopPlace:37541,,Roksvågkrysset,,63.260395,8.398375,,,1,,2,,,700
NSR:StopPlace:37540,,Hjartåbygda,,62.100475,6.168746,,,1,,2,,,700
NSR:StopPlace:38871,,Hellandshamn,,62.607937,6.470268,,,1,,2,,,700
NSR:StopPlace:38870,,Årset,,62.08873,6.254872,,,1,,2,,,700
NSR:StopPlace:38876,,Årseth gamlevegen,,62.498726,6.378798,,,1,,2,,,700
NSR:StopPlace:37545,,Rolls-Royce,,62.67623,6.26117,,,1,,2,,,700
NSR:StopPlace:37544,,Gjelaneset,,63.340534,8.772517,,,1,,2,,,700
NSR:StopPlace:37543,,Rolls Royce Ulsteinvik,,62.34467,5.838178,,,1,,2,,,700
NSR:StopPlace:38874,,Årseth,,62.50251,6.387051,,,1,,2,,,700
NSR:StopPlace:38873,,Fivakrysset,,62.529934,7.734194,,,1,,2,,,700
NSR:StopPlace:37542,,Utheimkrysset,,63.011276,7.426207,,,1,,2,,,700
NSR:StopPlace:37549,,Utsikten,,63.09127,7.659036,,,1,,2,,,700
NSR:StopPlace:37548,,Hjelden,,62.503635,7.56794,,,1,,2,,,700
NSR:StopPlace:38879,,Årseth vest gamlevegen,,62.497883,6.369142,,,1,,2,,,700
NSR:StopPlace:37547,,Romestrand,,62.360546,6.274551,,,1,,2,,,700
NSR:StopPlace:38877,,Hellandshamn sør,,62.605526,6.474166,,,1,,2,,,700
NSR:StopPlace:38882,,Årseth øst gamlevegen,,62.50304,6.392647,,,1,,2,,,700
NSR:StopPlace:38881,,Helle,,62.70288,7.954531,,,1,,2,,,700
NSR:StopPlace:37550,,Romfo bru rv. 70,,62.6021,8.938164,,,1,,2,,,700
NSR:StopPlace:38880,,Hellandsvik,,62.46652,6.27671,,,1,,2,,,700
NSR:StopPlace:37556,,Romsdal vgs.,,62.74411,7.189575,,,1,,2,,,700
NSR:StopPlace:38886,,Hellebust,,62.008026,5.630872,,,1,,2,,,700
NSR:StopPlace:37555,,Romfo,,62.60786,8.927692,,,1,,2,,,700
NSR:StopPlace:38885,,Årsetvegen,,62.1887,6.400543,,,1,,2,,,700
NSR:StopPlace:37554,,Gjela,,63.334587,8.745719,,,1,,2,,,700
NSR:StopPlace:37553,,Utstillingsplassen,,62.47248,6.165016,,,1,,2,,,700
NSR:StopPlace:37559,,Hjellane,,62.242245,7.155733,,,1,,2,,,700
NSR:StopPlace:38889,,Helledalen,,62.378357,6.581144,,,1,,2,,,700
NSR:StopPlace:37558,,Romsdalshorn,,62.519333,7.762122,,,1,,2,,,700
NSR:StopPlace:37557,,Utvik,,62.49951,6.530287,,,1,,2,,,700
NSR:StopPlace:40298,,Akslen,,62.43236,6.473268,,,1,,2,,,700
NSR:StopPlace:40299,,Kviltorpsvingen,,62.747223,7.231292,,,1,,2,,,700
NSR:StopPlace:40297,,Kviltorp skole,,62.744343,7.230935,,,1,,2,,,700
NSR:StopPlace:40295,,Akselvoll,,62.695087,6.691028,,,1,,2,,,700
NSR:StopPlace:40292,,Kviltorp camping,,62.742706,7.232668,,,1,,2,,,700
NSR:StopPlace:40293,,Aklestad øvre,,62.196117,6.42243,,,1,,2,,,700
NSR:StopPlace:40290,,Aklestad nedre,,62.19702,6.426101,,,1,,2,,,700
NSR:StopPlace:40291,,Grebstaddalen,,62.397522,6.613527,,,1,,2,,,700
NSR:StopPlace:35729,,Gausemel aust,,61.991386,6.541334,,,1,,2,,,700
NSR:StopPlace:43351,,Stormyra,,63.21164,9.021532,,,1,,2,,,700
NSR:StopPlace:42020,,Høgkjølen,,63.233227,9.542733,,,1,,2,,,700
NSR:StopPlace:35734,,Holen,,61.939613,6.485678,,,1,,2,,,700
NSR:StopPlace:35731,,Skåpavika,,61.938313,6.474029,,,1,,2,,,700
NSR:StopPlace:35736,,Kjøs bru,,61.938774,6.492998,,,1,,2,,,700
NSR:StopPlace:35739,,Jutdalen kryss,,61.933617,6.515704,,,1,,2,,,700
NSR:StopPlace:35741,,Øyebakken,,61.93325,6.524748,,,1,,2,,,700
NSR:StopPlace:35744,,Maurset kryss,,61.930305,6.537336,,,1,,2,,,700
NSR:StopPlace:35745,,Kjøs,,61.943268,6.48423,,,1,,2,,,700
NSR:StopPlace:35748,,Kjøsatunnelen,,61.948288,6.464552,,,1,,2,,,700
NSR:StopPlace:42044,,Valstad,,63.156296,9.654087,,,1,,2,,,700
NSR:StopPlace:35751,,Svor,,61.963455,6.510519,,,1,,2,,,700
NSR:StopPlace:35755,,Grodås,,61.96705,6.526732,,,1,,2,,,700
NSR:StopPlace:35754,,Grodås Urdene,,61.965004,6.522461,,,1,,2,,,700
NSR:StopPlace:35759,,Hornindal skule,,61.976864,6.520181,,,1,,2,,,700
NSR:StopPlace:35762,,Hornindal skule E39,,61.97513,6.521985,,,1,,2,,,700
NSR:StopPlace:35763,,Lødøen,,61.980576,6.517475,,,1,,2,,,700
NSR:StopPlace:35767,,Lødemel Kvivsvegen,,61.988113,6.51057,,,1,,2,,,700
NSR:StopPlace:60720,,Wergelandsveien,,63.110703,7.723456,,,1,,2,,,700
NSR:StopPlace:60721,,Godhaugen,,63.093403,7.841814,,,1,,2,,,700
NSR:StopPlace:43396,,Storøya,,63.30633,9.774709,,,1,,2,,,700
NSR:StopPlace:35774,,Fannemel kryss,,61.99369,6.556924,,,1,,2,,,700
NSR:StopPlace:43391,,Storås,,63.09611,9.598744,,,1,,2,,,700
NSR:StopPlace:35771,,Gausemel,,61.990665,6.534565,,,1,,2,,,700
NSR:StopPlace:38803,,Åm,,62.175697,6.206407,,,1,,2,,,700
NSR:StopPlace:35777,,Fannemel,,61.993046,6.551427,,,1,,2,,,700
NSR:StopPlace:38802,,Haukabøen,,62.728607,7.024026,,,1,,2,,,700
NSR:StopPlace:38807,,Åm kryss Haugen,,62.170242,6.21545,,,1,,2,,,700
NSR:StopPlace:59727,,Campus Molde,,62.736336,7.103413,,,1,,2,,,700
NSR:StopPlace:38806,,Lia,,62.604465,6.888533,,,1,,2,,,700
NSR:StopPlace:38805,,Haukeland,,62.159138,5.681092,,,1,,2,,,700
NSR:StopPlace:38804,,Åm midtre,,62.172752,6.21203,,,1,,2,,,700
NSR:StopPlace:60719,,Kristiansund stadion,,63.12576,7.719038,,,1,,2,,,700
NSR:StopPlace:38809,,Hålå,,62.608913,6.882896,,,1,,2,,,700
NSR:StopPlace:38808,,Haukåsen,,63.033554,7.607661,,,1,,2,,,700
NSR:StopPlace:60718,,Sødalen,,63.077393,7.784554,,,1,,2,,,700
NSR:StopPlace:60711,,Solemdalvegen,,62.747944,7.492169,,,1,,2,,,700
NSR:StopPlace:60712,,Jutvika,,63.10282,7.7392,,,1,,2,,,700
NSR:StopPlace:40210,,Sykkylvsbrua aust,,62.383553,6.574661,,,1,,2,,,700
NSR:StopPlace:39221,,Leitesvingen,,62.4721,6.221842,,,1,,2,,,700
NSR:StopPlace:41541,,Småøyan,,63.023357,8.602146,,,1,,2,,,700
NSR:StopPlace:41542,,Snipsøyr,,62.3165,5.97127,,,1,,2,,,700
NSR:StopPlace:40211,,Kvalsund vest,,62.342216,5.592631,,,1,,2,,,700
NSR:StopPlace:39222,,Tennfjord skule,,62.535732,6.586135,,,1,,2,,,700
NSR:StopPlace:39223,,Hundeidvik Formfin,,62.366856,6.424284,,,1,,2,,,700
NSR:StopPlace:41540,,Smågevatnet,,62.81258,6.806444,,,1,,2,,,700
NSR:StopPlace:39224,,Tennhaugen,,63.403927,8.712239,,,1,,2,,,700
NSR:StopPlace:39220,,Leitebakkrysset,,62.47534,6.032177,,,1,,2,,,700
NSR:StopPlace:39225,,Leitet,,62.973785,8.741311,,,1,,2,,,700
NSR:StopPlace:39226,,Fosnavåg sparebank,,62.34077,5.635519,,,1,,2,,,700
NSR:StopPlace:39227,,Teppemyra,,62.475452,6.038942,,,1,,2,,,700
NSR:StopPlace:39228,,Leitet,,63.030815,7.67043,,,1,,2,,,700
NSR:StopPlace:40218,,Kvalsvik,,62.362865,5.551438,,,1,,2,,,700
NSR:StopPlace:41549,,Sogna,,62.920494,8.112083,,,1,,2,,,700
NSR:StopPlace:40219,,Sylte skole,,62.82912,7.235345,,,1,,2,,,700
NSR:StopPlace:41547,,Sogge bru,,62.53302,7.734708,,,1,,2,,,700
NSR:StopPlace:41548,,Soggeberget,,62.527096,7.711638,,,1,,2,,,700
NSR:StopPlace:40217,,Syltebrua,,62.831882,7.23464,,,1,,2,,,700
NSR:StopPlace:41545,,Sogge,,62.981133,8.809165,,,1,,2,,,700
NSR:StopPlace:41546,,Sogge,,62.52864,7.723047,,,1,,2,,,700
NSR:StopPlace:40215,,Sylte,,63.091713,7.833408,,,1,,2,,,700
NSR:StopPlace:40213,,Kvalsund nord,,62.34565,5.592928,,,1,,2,,,700
NSR:StopPlace:41544,,Snøva,,62.608856,8.922677,,,1,,2,,,700
NSR:StopPlace:39232,,Leithalsen,,63.015305,7.567338,,,1,,2,,,700
NSR:StopPlace:40221,,Kvalvika,,63.096954,7.883714,,,1,,2,,,700
NSR:StopPlace:40222,,Sylte,,62.051403,5.619922,,,1,,2,,,700
NSR:StopPlace:39233,,Terøya,,62.553112,6.262226,,,1,,2,,,700
NSR:StopPlace:41550,,Solavågen ferjekai,,62.413895,6.327527,,,1,,2,,,1000
NSR:StopPlace:39234,,Lekneset ferjekai,,62.205788,6.534508,,,1,,2,,,1000
NSR:StopPlace:41551,,Solavågseidet,,62.42781,6.31719,,,1,,2,,,700
NSR:StopPlace:39235,,Tessbygget,,62.470097,6.350248,,,1,,2,,,700
NSR:StopPlace:39230,,Terøy,,62.431843,6.479684,,,1,,2,,,700
NSR:StopPlace:39231,,Fosnavåg terminal,,62.34271,5.631572,,,1,,2,,,700
NSR:StopPlace:39236,,Leknes ferjekai,,62.205826,6.534721,,,1,,2,,,700
NSR:StopPlace:39237,,Fossabakken,,63.049667,7.621044,,,1,,2,,,700
NSR:StopPlace:39238,,Tevika,,63.262714,8.535545,,,1,,2,,,700
NSR:StopPlace:40229,,Kvalvåg,,62.96554,7.97679,,,1,,2,,,700
NSR:StopPlace:40227,,Kvalvikbakken,,63.093067,7.884429,,,1,,2,,,700
NSR:StopPlace:40225,,Goma,,63.117374,7.749731,,,1,,2,,,700
NSR:StopPlace:41557,,Solduggsvingen,,63.119923,7.782424,,,1,,2,,,700
NSR:StopPlace:41554,,Solbakken terrasse,,62.744778,7.185158,,,1,,2,,,700
NSR:StopPlace:40223,,Kvalvikbukta,,63.099052,7.880811,,,1,,2,,,700
NSR:StopPlace:40224,,Sylte gamle skule,,62.055065,5.62231,,,1,,2,,,700
NSR:StopPlace:41555,,Solbakkvegen,,62.333076,5.635589,,,1,,2,,,700
NSR:StopPlace:39243,,Tinghuset,,62.47123,6.138412,,,1,,2,,,700
NSR:StopPlace:40232,,Kvalvåg,,63.069984,7.881067,,,1,,2,,,700
NSR:StopPlace:39244,,Lerheimsreiten,,62.596607,7.546294,,,1,,2,,,700
NSR:StopPlace:40233,,Syltesetra,,62.85288,7.25872,,,1,,2,,,700
NSR:StopPlace:41564,,Solem skule,,62.81921,6.825619,,,1,,2,,,700
NSR:StopPlace:42894,,Sødalskrysset,,63.21055,9.083599,,,1,,2,,,700
NSR:StopPlace:41561,,Soleimkrysset,,63.216393,8.193735,,,1,,2,,,700
NSR:StopPlace:39246,,Tingvoll,,62.91017,8.20716,,,1,,2,,,700
NSR:StopPlace:39240,,Steinsgrenda,,62.9572,7.487873,,,1,,2,,,700
NSR:StopPlace:39241,,Fossberget,,62.365246,8.040945,,,1,,2,,,700
NSR:StopPlace:61174,,Storslett,,63.16158,8.411024,,,1,,2,,,700
NSR:StopPlace:39242,,Lerheim,,62.58636,7.536835,,,1,,2,,,700
NSR:StopPlace:39247,,Lerstad bensin,,62.46746,6.293319,,,1,,2,,,700
NSR:StopPlace:57902,,Aukravegen,,62.74177,7.154235,,,1,,2,,,700
NSR:StopPlace:40238,,Kvamme,,62.209175,5.351251,,,1,,2,,,700
NSR:StopPlace:41567,,Solhaugen,,63.257977,8.530124,,,1,,2,,,700
NSR:StopPlace:41565,,Tollås,,62.755486,7.51402,,,1,,2,,,700
NSR:StopPlace:40234,,Kvam terrasse øvre,,62.737568,7.088637,,,1,,2,,,700
NSR:StopPlace:41566,,Solevåg barneskole,,62.427357,6.312214,,,1,,2,,,700
NSR:StopPlace:41574,,Sollikrysset,,62.301983,6.952766,,,1,,2,,,700
NSR:StopPlace:39254,,Fostervoll,,62.873737,7.899014,,,1,,2,,,700
NSR:StopPlace:40244,,Synes byggefelt,,62.547405,6.046782,,,1,,2,,,700
NSR:StopPlace:39255,,Tjelle,,62.76837,7.897852,,,1,,2,,,700
NSR:StopPlace:39256,,Lerstadtoppen,,62.469368,6.298567,,,1,,2,,,700
NSR:StopPlace:40241,,Gomalandet Sundbåtkai,,63.115112,7.745228,,,1,,2,,,1000
NSR:StopPlace:41572,,Solli,,63.05357,7.864448,,,1,,2,,,700
NSR:StopPlace:39257,,Fransvågen,,63.029755,7.600637,,,1,,2,,,700
NSR:StopPlace:41573,,Sollia,,62.828854,7.784699,,,1,,2,,,700
NSR:StopPlace:41570,,Solholmen ferjekai,,62.71954,6.937467,,,1,,2,,,700
NSR:StopPlace:39250,,Lerstadbakken,,62.46709,6.284582,,,1,,2,,,700
NSR:StopPlace:40240,,Kvammen,,62.309116,5.975025,,,1,,2,,,700
NSR:StopPlace:39252,,Lerstadnakken,,62.46966,6.315172,,,1,,2,,,700
NSR:StopPlace:39253,,Tivet kiosk,,62.812115,7.716468,,,1,,2,,,700
NSR:StopPlace:39258,,Tjørvåg,,62.281246,5.733019,,,1,,2,,,700
NSR:StopPlace:39259,,Lervik kryss,,63.146667,8.568098,,,1,,2,,,700
NSR:StopPlace:40249,,Synes kryss,,62.540565,6.040894,,,1,,2,,,700
NSR:StopPlace:39260,,Tjørvåg gamle skule,,62.290855,5.73516,,,1,,2,,,700
NSR:StopPlace:40247,,Kvamsøya ferjekai,,62.19782,5.41986,,,1,,2,,,1000
NSR:StopPlace:41578,,Sollivegen/Bekkevollvegen,,62.743294,7.15289,,,1,,2,,,700
NSR:StopPlace:40248,,Gossen skole,,62.806366,6.884781,,,1,,2,,,700
NSR:StopPlace:40245,,Kvammen,,62.955475,7.536267,,,1,,2,,,700
NSR:StopPlace:41576,,Sollivegen,,62.743736,7.163198,,,1,,2,,,700
NSR:StopPlace:41577,,Sollivegen/Tømmervegen,,62.743053,7.158229,,,1,,2,,,700
NSR:StopPlace:39265,,Fredsberg borettslag,,62.472057,6.245795,,,1,,2,,,700
NSR:StopPlace:40255,,Synnalandsneset,,62.607872,6.438247,,,1,,2,,,700
NSR:StopPlace:39267,,Tjørvågane,,62.28454,5.730569,,,1,,2,,,700
NSR:StopPlace:40252,,Synnalandsdalen,,62.594624,6.43519,,,1,,2,,,700
NSR:StopPlace:39268,,Lesund,,63.33397,8.459544,,,1,,2,,,700
NSR:StopPlace:40250,,Kvanne,,62.888786,8.533679,,,1,,2,,,700
NSR:StopPlace:39261,,Lervika,,63.339317,8.124416,,,1,,2,,,700
NSR:StopPlace:40251,,Kvanne ferjekai,,62.88844,8.531332,,,1,,2,,,1000
NSR:StopPlace:39263,,Tjørvåg indre,,62.27907,5.74097,,,1,,2,,,700
NSR:StopPlace:41580,,Solnørdal,,62.4574,6.118515,,,1,,2,,,700
NSR:StopPlace:39269,,Todal,,63.199547,8.691072,,,1,,2,,,700
NSR:StopPlace:39270,,Fredsbergvegen,,62.47181,6.239929,,,1,,2,,,700
NSR:StopPlace:39271,,Liabygda,,62.55716,7.834425,,,1,,2,,,700
NSR:StopPlace:40259,,Kvernberget,,62.77149,7.996005,,,1,,2,,,700
NSR:StopPlace:40256,,Kvennabakken,,62.52026,7.697616,,,1,,2,,,700
NSR:StopPlace:40257,,Synnalandsneset gamlevegen,,62.609608,6.436733,,,1,,2,,,700
NSR:StopPlace:40265,,Kvernes kirke,,63.005627,7.722689,,,1,,2,,,700
NSR:StopPlace:39276,,Fredsvika,,62.78106,8.256476,,,1,,2,,,700
NSR:StopPlace:40266,,Aurekrysset,,62.812664,7.103203,,,1,,2,,,700
NSR:StopPlace:39277,,Liabygda Ringsetskiftet,,62.31459,7.050212,,,1,,2,,,700
NSR:StopPlace:40263,,Kvernes boligfelt,,63.002186,7.720667,,,1,,2,,,700
NSR:StopPlace:39279,,Liabø,,63.04567,8.0407,,,1,,2,,,700
NSR:StopPlace:40264,,Grande,,62.116154,7.185465,,,1,,2,,,700
NSR:StopPlace:40261,,Kvernes museum,,63.00764,7.712712,,,1,,2,,,700
NSR:StopPlace:40262,,Syvde kryss Sørdal,,62.08694,5.732978,,,1,,2,,,700
NSR:StopPlace:39274,,Liabygda ferjekai,,62.3085,7.006034,,,1,,2,,,700
NSR:StopPlace:40260,,Syvde kryss Nordal,,62.093235,5.747261,,,1,,2,,,700
NSR:StopPlace:39282,,Liabøkrysset,,63.119186,8.307268,,,1,,2,,,700
NSR:StopPlace:40267,,Granlia rundkjøring,,62.744858,7.178977,,,1,,2,,,700
NSR:StopPlace:40268,,Kvernhusvågen,,63.01727,7.588858,,,1,,2,,,700
NSR:StopPlace:41599,,Heliveien,,63.141544,9.637339,,,1,,2,,,700
NSR:StopPlace:39287,,Tomra,,62.582085,6.93038,,,1,,2,,,700
NSR:StopPlace:39288,,Lianes,,62.2179,6.01515,,,1,,2,,,700
NSR:StopPlace:40277,,Aannø,,62.442528,6.213056,,,1,,2,,,700
NSR:StopPlace:39289,,Tomrefjord bedehus,,62.596992,6.930259,,,1,,2,,,700
NSR:StopPlace:39283,,Tokle,,62.577877,7.766199,,,1,,2,,,700
NSR:StopPlace:40272,,Granlia/Ingrids veg,,62.746445,7.187405,,,1,,2,,,700
NSR:StopPlace:39284,,Liadal,,62.24216,5.997707,,,1,,2,,,700
NSR:StopPlace:40273,,Kvervesenteret,,62.490757,6.189826,,,1,,2,,,700
NSR:StopPlace:40270,,Kverve,,62.49107,6.186088,,,1,,2,,,700
NSR:StopPlace:39285,,Løvollen,,62.587685,6.934276,,,1,,2,,,700
NSR:StopPlace:39286,,Frei grendahus,,63.027554,7.79015,,,1,,2,,,700
NSR:StopPlace:39290,,Frei kirke,,63.02611,7.798106,,,1,,2,,,700
NSR:StopPlace:39292,,Tomrefjord skule,,62.601593,6.930912,,,1,,2,,,700
NSR:StopPlace:40279,,Gravem,,62.55967,9.080348,,,1,,2,,,700
NSR:StopPlace:39298,,Rådhusbakken,,63.092747,7.839933,,,1,,2,,,700
NSR:StopPlace:39299,,Liavegen,,62.500565,6.70933,,,1,,2,,,700
NSR:StopPlace:40288,,Akerhallen,,62.7518,7.266101,,,1,,2,,,700
NSR:StopPlace:40286,,Grebstad/Kagholvegen,,62.399242,6.599105,,,1,,2,,,700
NSR:StopPlace:43310,,Stokkhaugen E39,,63.28626,9.630601,,,1,,2,,,700
NSR:StopPlace:40283,,Kvila,,63.00874,7.458323,,,1,,2,,,700
NSR:StopPlace:40284,,Abc-veien,,63.122,7.788771,,,1,,2,,,700
NSR:StopPlace:39295,,Idahallen,,62.60525,6.934418,,,1,,2,,,700
NSR:StopPlace:39296,,Liaset,,62.33996,6.047559,,,1,,2,,,700
NSR:StopPlace:39297,,Krogsbakken,,62.59426,6.932027,,,1,,2,,,700
NSR:StopPlace:40289,,Kviltorp,,62.74232,7.229031,,,1,,2,,,700
NSR:StopPlace:38773,,Hauge gamleskulen,,62.235332,5.582636,,,1,,2,,,700
NSR:StopPlace:38772,,Fiksdal bussparkering,,62.618202,6.854992,,,1,,2,,,700
NSR:StopPlace:58385,,Giske rundkjøring,,62.510254,6.05815,,,1,,2,,,700
NSR:StopPlace:38770,,Hauge nyevegen,,62.236355,5.573832,,,1,,2,,,700
NSR:StopPlace:38776,,Hauge skule,,62.198555,5.41787,,,1,,2,,,700
NSR:StopPlace:38775,,Ålesund rutebilstasjon,,62.47038,6.154049,,,1,,2,,,700
NSR:StopPlace:38774,,Ålesund rutebilstasjon hurtigbåtkai,,62.470074,6.154494,,,1,,2,,,1000
NSR:StopPlace:38779,,Haugen,,63.101704,9.406609,,,1,,2,,,700
NSR:StopPlace:38778,,Fiksdal skule,,62.616806,6.857585,,,1,,2,,,700
NSR:StopPlace:38784,,Iverbakken byggefelt,,62.622368,6.850291,,,1,,2,,,700
NSR:StopPlace:60693,,Morkalia,,62.95706,7.573711,,,1,,2,,,700
NSR:StopPlace:38783,,Haugen,,63.21901,8.58337,,,1,,2,,,700
NSR:StopPlace:38782,,Ålesund sjukehus,,62.464203,6.315811,,,1,,2,,,700
NSR:StopPlace:38788,,Gjelen,,62.611183,6.876819,,,1,,2,,,700
NSR:StopPlace:38786,,Ålmo,,63.201805,8.413324,,,1,,2,,,700
NSR:StopPlace:38785,,Haugenkrysset,,62.91084,8.634111,,,1,,2,,,700
NSR:StopPlace:38791,,Ålvundeid rv. 70,,62.758656,8.53408,,,1,,2,,,700
NSR:StopPlace:38794,,Ålvundfjord skole,,62.840553,8.521071,,,1,,2,,,700
NSR:StopPlace:38792,,Hingarden,,62.613953,6.868638,,,1,,2,,,700
NSR:StopPlace:38799,,Ålvundfoss,,62.83122,8.5262,,,1,,2,,,700
NSR:StopPlace:38798,,Hauglia Mellomfaret,,62.858788,7.174008,,,1,,2,,,700
NSR:StopPlace:38796,,Ålvundfjorden,,62.846256,8.522599,,,1,,2,,,700
NSR:StopPlace:37478,,Hestegjærde,,62.484596,6.542538,,,1,,2,,,700
NSR:StopPlace:37476,,Ringstadkrysset øst,,62.30812,6.925334,,,1,,2,,,700
NSR:StopPlace:37482,,Rise aust,,62.352154,5.937026,,,1,,2,,,700
NSR:StopPlace:37481,,Underhaugen,,62.78621,7.06584,,,1,,2,,,700
NSR:StopPlace:37480,,Rise,,62.350445,5.929807,,,1,,2,,,700
NSR:StopPlace:37485,,Hestehagen,,62.756058,7.320628,,,1,,2,,,700
NSR:StopPlace:37484,,Rise vest,,62.349083,5.923586,,,1,,2,,,700
NSR:StopPlace:37483,,Undhjem,,62.579857,7.867455,,,1,,2,,,700
NSR:StopPlace:37487,,Djupmyrveien,,63.04997,7.63177,,,1,,2,,,700
NSR:StopPlace:41509,,Ringstad,,62.30866,6.937041,,,1,,2,,,700
NSR:StopPlace:41507,,Slotsvik øst,,62.493546,6.272545,,,1,,2,,,700
NSR:StopPlace:41503,,Slotsvik vest,,62.49384,6.261459,,,1,,2,,,700
NSR:StopPlace:41504,,Ringdal,,62.089214,6.854874,,,1,,2,,,700
NSR:StopPlace:41501,,Rindalsskogen,,63.098106,9.323531,,,1,,2,,,700
NSR:StopPlace:41502,,Rindarøy,,62.845676,6.774761,,,1,,2,,,700
NSR:StopPlace:42832,,Svorkmo,,63.170803,9.737744,,,1,,2,,,700
NSR:StopPlace:37493,,Union Hotell Geiranger,,62.09638,7.210444,,,1,,2,,,700
NSR:StopPlace:37492,,Ristesund,,62.217632,5.367892,,,1,,2,,,700
NSR:StopPlace:37491,,Hesthaug,,62.246418,7.140662,,,1,,2,,,700
NSR:StopPlace:37490,,Rishaugen,,62.50824,6.057006,,,1,,2,,,700
NSR:StopPlace:37497,,Urabakken,,62.461346,6.329614,,,1,,2,,,700
NSR:StopPlace:37494,,Rjånes,,62.24915,5.973962,,,1,,2,,,700
NSR:StopPlace:37499,,Hestnes kryss,,63.13008,8.515098,,,1,,2,,,700
NSR:StopPlace:37498,,Roald,,62.580547,6.122427,,,1,,2,,,700
NSR:StopPlace:41518,,Slyngstadelva,,62.543488,6.522344,,,1,,2,,,700
NSR:StopPlace:41516,,Slyngstad byggefelt,,62.543175,6.533728,,,1,,2,,,700
NSR:StopPlace:41517,,Slyngstad vest,,62.542034,6.511132,,,1,,2,,,700
NSR:StopPlace:41514,,Ringstad skule,,62.307854,6.936505,,,1,,2,,,700
NSR:StopPlace:41515,,Ringstadkrysset vest,,62.307404,6.923156,,,1,,2,,,700
NSR:StopPlace:41512,,Ringstad sør,,62.59119,6.469092,,,1,,2,,,700
NSR:StopPlace:42843,,Munkvoll,,62.609287,9.456884,,,1,,2,,,700
NSR:StopPlace:41513,,Slyngstad barnehage,,62.53936,6.500818,,,1,,2,,,700
NSR:StopPlace:41510,,Ringstad nord,,62.59757,6.469601,,,1,,2,,,700
NSR:StopPlace:41511,,Slyngstad,,62.54326,6.517841,,,1,,2,,,700
NSR:StopPlace:39201,,Tareveien,,63.124817,7.705269,,,1,,2,,,700
NSR:StopPlace:39202,,Målen,,63.20635,8.042975,,,1,,2,,,700
NSR:StopPlace:39208,,Leirvåg,,62.4229,6.32448,,,1,,2,,,700
NSR:StopPlace:39203,,Tefeltet,,62.582886,6.122658,,,1,,2,,,700
NSR:StopPlace:39205,,Leirdal,,63.273376,8.527382,,,1,,2,,,700
NSR:StopPlace:39206,,Teigan,,62.98221,8.814348,,,1,,2,,,700
NSR:StopPlace:41527,,Smevåg,,63.077133,7.654138,,,1,,2,,,700
NSR:StopPlace:41528,,Smia,,62.585472,7.73623,,,1,,2,,,700
NSR:StopPlace:41525,,Smalebakken,,62.15128,6.081684,,,1,,2,,,700
NSR:StopPlace:41526,,Smedneskrysset,,63.001324,7.408473,,,1,,2,,,700
NSR:StopPlace:41522,,Slåttelid,,62.066994,6.278351,,,1,,2,,,700
NSR:StopPlace:41530,,Leirelva,,63.200085,8.027029,,,1,,2,,,700
NSR:StopPlace:40200,,Sykkylven sentrum,,62.391586,6.581006,,,1,,2,,,700
NSR:StopPlace:41531,,Smiset,,62.80215,8.505027,,,1,,2,,,700
NSR:StopPlace:39219,,Tennfjord,,62.53775,6.583103,,,1,,2,,,700
NSR:StopPlace:39214,,Leite,,63.098965,7.648725,,,1,,2,,,700
NSR:StopPlace:39215,,Åheim,,63.225044,8.12924,,,1,,2,,,700
NSR:StopPlace:39216,,Telset,,62.184277,5.916689,,,1,,2,,,700
NSR:StopPlace:39217,,Leitebakken,,62.924206,7.767259,,,1,,2,,,700
NSR:StopPlace:40207,,Sykkylven kyrkje,,62.3946,6.58154,,,1,,2,,,700
NSR:StopPlace:41538,,Smågeskiftet,,62.809406,6.82807,,,1,,2,,,700
NSR:StopPlace:40208,,Kvalsund aust,,62.343468,5.598095,,,1,,2,,,700
NSR:StopPlace:41539,,Smågetoppen,,62.810505,6.811485,,,1,,2,,,700
NSR:StopPlace:41536,,Småge ferjekai,,62.806637,6.7675,,,1,,2,,,700
NSR:StopPlace:40205,,Sykkylven ferjekai,,62.410145,6.547712,,,1,,2,,,1000
NSR:StopPlace:41537,,Smågesjø,,62.80882,6.810225,,,1,,2,,,700
NSR:StopPlace:40206,,Kvalstein,,62.493263,6.280561,,,1,,2,,,700
NSR:StopPlace:40203,,Goksøyr ytre,,62.404327,5.623739,,,1,,2,,,700
NSR:StopPlace:40204,,Kvalshaug,,62.974384,7.394691,,,1,,2,,,700
NSR:StopPlace:41535,,Småge,,62.810165,6.820441,,,1,,2,,,700
NSR:StopPlace:41532,,Naustvollveien,,63.054985,7.63384,,,1,,2,,,700
NSR:StopPlace:40201,,Kvalmyr,,62.831516,6.907716,,,1,,2,,,700
NSR:StopPlace:59632,,Indrevik øst,,62.466488,6.653222,,,1,,2,,,700
NSR:StopPlace:38704,,Øye,,62.19297,6.659372,,,1,,2,,,700
NSR:StopPlace:38702,,Øye skoler,,62.980396,8.716262,,,1,,2,,,700
NSR:StopPlace:38701,,Farstad,,62.60797,6.19896,,,1,,2,,,700
NSR:StopPlace:38706,,Farstad,,62.973927,7.161744,,,1,,2,,,700
NSR:StopPlace:38705,,Harøysundskiftet,,62.899647,6.971021,,,1,,2,,,700
NSR:StopPlace:38709,,Hasseløy,,63.05396,7.437831,,,1,,2,,,700
NSR:StopPlace:38710,,Øyeskiftet,,62.88368,7.931287,,,1,,2,,,700
NSR:StopPlace:38714,,Hasløyseterveien,,63.039654,7.48194,,,1,,2,,,700
NSR:StopPlace:38713,,Øygarden,,62.60874,7.283034,,,1,,2,,,700
NSR:StopPlace:38712,,Hasseløykrysset,,63.062,7.479728,,,1,,2,,,700
NSR:StopPlace:38719,,Hasund skule,,62.315723,5.84294,,,1,,2,,,700
NSR:StopPlace:38717,,Hasund,,62.31688,5.856151,,,1,,2,,,700
NSR:StopPlace:38722,,Hatlasvingen,,62.46071,6.266375,,,1,,2,,,700
NSR:StopPlace:38721,,Fastes veg,,62.54943,6.601715,,,1,,2,,,700
NSR:StopPlace:38720,,Øyra,,62.13383,5.675283,,,1,,2,,,700
NSR:StopPlace:38725,,Øysenteret,,62.49917,6.131782,,,1,,2,,,700
NSR:StopPlace:38724,,Hatle,,62.895393,7.159058,,,1,,2,,,700
NSR:StopPlace:38723,,Øyrane,,62.295647,5.610806,,,1,,2,,,700
NSR:StopPlace:38729,,Hatlelia,,62.745342,7.162005,,,1,,2,,,700
NSR:StopPlace:38728,,Øytun,,62.79479,8.502505,,,1,,2,,,700
NSR:StopPlace:38727,,Hatlehol gravsted,,62.436497,6.392661,,,1,,2,,,700
NSR:StopPlace:38733,,Hatlemark,,62.387726,6.453461,,,1,,2,,,700
NSR:StopPlace:38732,,Øytun,,63.062305,7.487093,,,1,,2,,,700
NSR:StopPlace:38737,,Åfarnes,,62.660645,7.500749,,,1,,2,,,700
NSR:StopPlace:38736,,Fauske,,62.403065,6.576635,,,1,,2,,,700
NSR:StopPlace:38735,,Hatlen,,62.456905,6.921605,,,1,,2,,,700
NSR:StopPlace:38734,,Øytun byggefelt,,62.672035,6.269881,,,1,,2,,,700
NSR:StopPlace:38739,,Åfarnes ferjekai,,62.663742,7.504845,,,1,,2,,,1000
NSR:StopPlace:38738,,Hatlen,,62.579853,7.816086,,,1,,2,,,700
NSR:StopPlace:38740,,Hatlen,,62.82239,7.765801,,,1,,2,,,700
NSR:StopPlace:38744,,Åheim,,62.036297,5.529584,,,1,,2,,,700
NSR:StopPlace:38743,,Hatlen snuplass,,62.456944,6.929019,,,1,,2,,,700
NSR:StopPlace:38742,,Seljehaugen,,62.949097,7.550719,,,1,,2,,,700
NSR:StopPlace:38741,,Felleskjøpet,,63.071686,8.283321,,,1,,2,,,700
NSR:StopPlace:38748,,Hatlestad,,62.24722,7.217282,,,1,,2,,,700
NSR:StopPlace:38747,,Åheim skule,,62.03513,5.53407,,,1,,2,,,700
NSR:StopPlace:38745,,Hatlenskiftet,,62.821507,7.766937,,,1,,2,,,700
NSR:StopPlace:38749,,Festbugen,,63.307613,8.574589,,,1,,2,,,700
NSR:StopPlace:38751,,Hauan,,62.741848,7.158872,,,1,,2,,,700
NSR:StopPlace:38750,,Åk,,62.53597,7.729681,,,1,,2,,,700
NSR:StopPlace:59695,,Øyagata,,62.66734,8.584183,,,1,,2,,,700
NSR:StopPlace:38755,,Åkeshjellen,,62.540455,7.724436,,,1,,2,,,700
NSR:StopPlace:38754,,Festøya ferjekai,,62.374924,6.33147,,,1,,2,,,1000
NSR:StopPlace:38753,,Hauaplassen,,62.47287,6.227515,,,1,,2,,,700
NSR:StopPlace:38759,,Fet gamlevegen,,62.308075,6.624684,,,1,,2,,,700
NSR:StopPlace:38757,,Åkre nord,,62.650124,6.222526,,,1,,2,,,700
NSR:StopPlace:60685,,Risan,,62.777252,7.604207,,,1,,2,,,700
NSR:StopPlace:38761,,Hauge,,62.23343,5.601002,,,1,,2,,,700
NSR:StopPlace:38760,,Åkre sør,,62.643562,6.233095,,,1,,2,,,700
NSR:StopPlace:38766,,Åkvika,,63.076164,7.596171,,,1,,2,,,700
NSR:StopPlace:38763,,Åkvik,,63.337326,8.469688,,,1,,2,,,700
NSR:StopPlace:38769,,Fet nyevegen,,62.308376,6.62576,,,1,,2,,,700
NSR:StopPlace:38768,,Ålesund hurtigbåtkai Skateflukaia,,62.474564,6.154449,,,1,,2,,,1000
NSR:StopPlace:60675,,Rossetvikane,,62.09276,5.95915,,,1,,2,,,700
NSR:StopPlace:60676,,Indre Nautvika,,62.130398,5.970884,,,1,,2,,,700
NSR:StopPlace:60677,,Ytre Nautvika,,62.135426,5.966692,,,1,,2,,,700
NSR:StopPlace:39188,,Tandstad,,62.34824,6.586187,,,1,,2,,,700
NSR:StopPlace:40177,,Svendsengarden,,62.201473,6.124097,,,1,,2,,,700
NSR:StopPlace:39189,,Leine skule,,62.347237,5.68665,,,1,,2,,,700
NSR:StopPlace:40178,,Godøy skule,,62.47272,6.022735,,,1,,2,,,700
NSR:StopPlace:40175,,Sveggen kai,,63.104942,7.596378,,,1,,2,,,700
NSR:StopPlace:40176,,Kråkenes nord,,62.067142,5.585045,,,1,,2,,,700
NSR:StopPlace:39184,,Leikongsætra,,62.24447,5.761007,,,1,,2,,,700
NSR:StopPlace:40174,,Kråkenes sør,,62.06428,5.596829,,,1,,2,,,700
NSR:StopPlace:39185,,Tangeneset,,62.77497,6.913962,,,1,,2,,,700
NSR:StopPlace:39186,,Leine,,62.340664,5.692922,,,1,,2,,,700
NSR:StopPlace:40171,,Godøy bedehus,,62.468662,6.01592,,,1,,2,,,700
NSR:StopPlace:39187,,Foldfjorden,,63.260483,8.378817,,,1,,2,,,700
NSR:StopPlace:40170,,Sveggen,,63.1058,7.599993,,,1,,2,,,700
NSR:StopPlace:39191,,Folkestad ferjekai,,62.119663,6.033171,,,1,,2,,,700
NSR:StopPlace:39192,,Leine ytre,,62.35242,5.673115,,,1,,2,,,700
NSR:StopPlace:40179,,Svindset,,62.415543,6.790881,,,1,,2,,,700
